,DistrictCode,SchoolCode,SchoolName,Address,City,State,ZipCode,Latitude,Longitude,StateDistrictNo,CongressionalDistrict
0,17210,4422,Rainier View Elementary School,3015 S 368TH ST,FEDERAL WAY,Washington,98003-7669,47.271096,-122.294449,#30,WA9
1,17210,4426,Green Gables Elementary School,32607 47TH AVE SW,FEDERAL WAY,Washington,98023-1938,47.309209,-122.393906,#30,WA9
2,17210,4470,Enterprise Elementary School,35101 5TH AVE SW,FEDERAL WAY,Washington,98023-8108,47.287245,-122.341085,#30,WA9
3,17210,4480,Meredith Hill Elementary School,5830 S 300TH ST,AUBURN,Washington,98001-2311,47.333845,-122.26136,#47,WA9
4,17210,4570,Todd Beamer High School,35999 16TH AV S,FEDERAL WAY,Washington,98003-7414,47.277469,-122.314377,#30,WA9
5,17216,1523,Special Ed School,2929 McDougall Avenue,Enumclaw,Washington,98022,47.188548,-122.008775,#31,WA8
6,17216,2980,Byron Kibler Elementary School,2057 Kibler Ave,Enumclaw,Washington,98022-2798,47.210569,-121.996578,#31,WA8
7,17216,3330,Enumclaw Sr High School,226 Semanski St South,Enumclaw,Washington,98022-2099,47.191204,-122.006512,#31,WA8
8,17216,3430,Black Diamond Elementary,P.O. Box 285,Black Diamond,Washington,98010,47.310568,-121.998721,#5,WA8
9,17216,3585,Westwood Elementary School,21200 SE 416th,Enumclaw,Washington,98022-9099,47.228949,-122.05798,#31,WA8
10,17216,3739,Southwood Elementary School,3240 McDougall Avenue,Enumclaw,Washington,98022-9498,47.187382,-122.011853,#31,WA8
11,17216,4210,Enumclaw Middle School,550 Semanski Street,Enumclaw,Washington,98022-2067,47.187075,-122.007961,#31,WA8
12,17216,4289,Sunrise Elementary,899 Osceola At 244th Ave SE,Enumclaw,Washington,98022-4045,47.185532,-122.014754,#31,WA8
13,17216,4550,Thunder Mountain Middle School,42018 264th Avenue SE,Enumclaw,Washington,98022-0000,47.223106,-121.987509,#31,WA8
14,17400,2981,Lakeridge Elementary School,8215 SE 78th,Mercer Island,Washington,98040-5901,47.532461,-122.22864,#41,WA9
15,17400,3029,Mercer Island High School,9100 SE 42nd,Mercer Island,Washington,98040-4199,47.571616,-122.217232,#41,WA9
16,17400,3162,Island Park Elementary,5437 Island Crest Way,Mercer Island,Washington,98040-4647,47.553752,-122.222706,#41,WA9
17,17400,3219,Islander Middle School,8225 SE 72ND,Mercer Island,Washington,98040-5399,47.537686,-122.228324,#41,WA9
18,17400,3433,West Mercer Elementary,4141 81st Ave SE,Mercer Island,Washington,98040-3928,47.571632,-122.231105,#41,WA9
19,17401,1539,CHOICE Academy,18367 8th Ave S,Seattle,Washington,98148-1934,47.437847,-122.325001,#33,WA7
20,17401,2144,Mount View Elementary,10811 12th Ave SW,Seattle,Washington,98146-2125,47.50617,-122.350671,#34,WA7
21,17401,2270,Puget Sound Skills Center,18010 8th Ave S,Seattle,Washington,98148-1908,47.441073,-122.322929,#33,WA7
22,17401,2325,Highline High School,225 S 152nd St,Burien,Washington,98148-1087,47.46649,-122.330156,#33,WA7
23,17401,2418,Des Moines Elementary,23801 16th Avenue South,Des Moines,Washington,98198-6310,47.388894,-122.313582,#33,WA9
24,17401,2639,White Center Heights Elementary,10015 6th Avenue Southwest,Seattle,Washington,98146,47.513308,-122.344119,#34,WA7
25,17401,2699,Hazel Valley Elementary,402 SW 132nd St,Burien,Washington,98146-3236,47.485608,-122.3408,#33,WA7
26,17401,2734,McMicken Heights Elementary,3708 S 168th St,SeaTac,Washington,98188-3149,47.453289,-122.28521,#33,WA9
27,17401,2765,Beverly Park Elem at Glendale,1201 S 104th St,Seattle,Washington,98168-1549,47.509438,-122.317432,#34,WA7
28,17401,2842,Shorewood Elementary,2725 SW 116th St,Burien,Washington,98146-3499,47.498733,-122.367969,#34,WA7
29,17401,2844,Gregory Heights Elementary,16201 16th Ave SW,Burien,Washington,98166,47.458134,-122.355958,#33,WA7
30,17401,2926,Cedarhurst Elementary,611 S 132nd St,Burien,Washington,98168,47.48442,-122.325168,#33,WA7
31,17401,2927,Sylvester Middle School,16222 Sylvester Road SW,Burien,Washington,98166-3093,47.457429,-122.340342,#33,WA7
32,17401,2982,Bow Lake Elementary,18237 42nd Ave S,SeaTac,Washington,98188-4525,47.439158,-122.282486,#33,WA9
33,17401,2983,North Hill Elementary,19835 8th Ave S,Des Moines,Washington,98148-2246,47.424796,-122.327079,#33,WA9
34,17401,2984,Midway Elementary,22447 24th Ave S,Des Moines,Washington,98198-7199,47.399908,-122.303411,#33,WA9
35,17401,3032,Southern Heights Elementary,11249 14th Ave S,Seattle,Washington,98168-2199,47.502001,-122.315782,#34,WA7
36,17401,3097,Marvista Elementary,19800 Marine View Dr SW,Normandy Park,Washington,98166-4199,47.425124,-122.341313,#33,WA7
37,17401,3098,Chinook Middle School,18650 42nd Ave S,SeaTac,Washington,98188-5012,47.43514,-122.280726,#33,WA9
38,17401,3099,Evergreen High School,830 SW 116th St,Seattle,Washington,98146-2298,47.499698,-122.345517,#34,WA7
39,17401,3163,Cascade Middle School,11212 10th Ave Sw,Seattle,Washington,98146-2297,47.501923,-122.345848,#34,WA7
40,17401,3165,Hilltop Elementary,12250 24th Ave S,Seattle,Washington,98168-2424,47.492836,-122.30119,#33,WA7
41,17401,3278,Madrona Elementary,20301 32nd Avenue South,SeaTac,Washington,98198,47.420133,-122.293098,#33,WA9
42,17401,3279,Mount Rainier High School,22450 19th Ave S,Des Moines,Washington,98198-7699,47.399882,-122.307718,#33,WA9
43,17401,3333,Pacific Middle School,22705 24th Ave S,Des Moines,Washington,98198-7195,47.398383,-122.304015,#33,WA9
44,17401,3335,Parkside Elementary,2104 S 247th St,Des Moines,Washington,98198-3901,47.38103,-122.305784,#33,WA9
45,17401,3382,Seahurst Elementary School,14603 14th Ave SW,Burien,Washington,98166-1730,47.471125,-122.353915,#33,WA7
46,17401,3483,Tyee High School,4424 S 188th St,SeaTac,Washington,98188-5097,47.43584,-122.277748,#33,WA9
47,17402,1822,Family Link,20120 VASHON HWY SW,VASHON,Washington,98070-6026,47.423516,-122.460337,#34,WA7
48,17402,2419,Vashon Island High School,9600 SW 204TH ST,VASHON,Washington,98070-0000,47.423142,-122.456872,#34,WA7
49,17402,3667,McMurray Middle School,9329 SW CEMETERY RD,VASHON,Washington,98070-0000,47.428631,-122.45436,#34,WA7
50,17402,4468,Chautauqua Elementary,9309 SW CEMETERY RD,VASHON,Washington,98070-0000,47.427601,-122.452253,#34,WA7
51,17403,1534,Griffin Home,2500 Lake Washington Blvd N,Renton,Washington,98056-2508,47.514509,-122.204364,#11,WA9
52,17403,1648,Out Of District Facility,300 SW 7th St,Renton,Washington,98055-2307,47.4744,-122.220773,#11,WA9
53,17403,1784,H.O.M.E. Program,2607 Jones Ave S,Renton,Washington,98055-5102,47.456405,-122.197443,#11,WA9
54,17403,2439,Bryn Mawr Elementary School,8212 S 118th St,Seattle,Washington,98178-3854,47.498036,-122.229316,#37,WA9
55,17403,2475,Renton Senior High School,400 S 2nd St,Renton,Washington,98055-2007,47.482105,-122.211527,#11,WA9
56,17403,2597,Kennydale Elementary School,1700 NE 28th St,Renton,Washington,98056-2228,47.517137,-122.19663,#11,WA9
57,17403,2640,Highlands Elementary School,2720 NE 7th St,Renton,Washington,98056-3714,47.495036,-122.182211,#11,WA9
58,17403,2929,Lakeridge Elementary School,7400 S 115th St,Seattle,Washington,98178-3023,47.499814,-122.239959,#37,WA9
59,17403,3034,Campbell Hill Elementary School,6418 S 124th St,Seattle,Washington,98178-3627,47.492453,-122.253279,#37,WA9
60,17403,3035,McKnight Middle School,1200 Edmonds Ave NE,Renton,Washington,98056-2763,47.505723,-122.183727,#11,WA9
61,17403,3280,Dimmitt Middle School,12320 80th Ave S,Seattle,Washington,98178-4413,47.492522,-122.232298,#37,WA9
62,17403,3337,Cascade Elementary School,16022 116th Ave SE,Renton,Washington,98058-5245,47.458629,-122.185171,#11,WA9
63,17403,3434,Nelsen Middle School,2403 Jones Ave S,Renton,Washington,98055-4304,47.457818,-122.198658,#11,WA9
64,17403,3485,Hazelwood Elementary School,7100 116th Ave SE,Newcastle,Washington,98056-1133,47.538018,-122.184277,#41,WA9
65,17403,3521,Renton Park Elementary School,16828 128th Ave SE,Renton,Washington,98058-6149,47.451686,-122.168852,#11,WA9
66,17403,3586,Maplewood Heights Elementary School,130 Jericho Ave SE,Renton,Washington,98059,47.482408,-122.1471,#11,WA9
67,17403,3587,Benson Hill Elementary School,18665 116th Ave SE,Renton,Washington,98058-7198,47.434818,-122.187275,#11,WA9
68,17403,3630,Hazen Senior High School,1101 Hoquiam Ave NE,Renton,Washington,98059-4314,47.50163,-122.15235,#11,WA9
69,17403,3668,Sierra Heights Elementary School,9901 132nd Ave SE,Renton,Washington,98059-3505,47.514771,-122.164427,#11,WA9
70,17403,3702,Tiffany Park Elementary School,1601 Lake Youngs Way SE,Renton,Washington,98058-3817,47.465199,-122.178553,#11,WA9
71,17403,3740,Talbot Hill Elementary School,2300 Talbot Rd S,Renton,Washington,98055-4222,47.458473,-122.210994,#11,WA9
72,17403,3741,Lindbergh Senior High School,16426 128th Ave SE,Renton,Washington,98058-5534,47.454276,-122.167906,#11,WA9
73,17404,2512,Skykomish Elementary School,P.O. Box 325,Skykomish,Washington,98288-0325,47.70927,-121.3601,#12,WA8
74,17404,2513,Skykomish High School,P.O. Box 325,Skykomish,Washington,98288-0325,47.70927,-121.3601,#12,WA8
75,17405,2701,Bellevue High School,10416 Wolverine Way,Bellevue,Washington,98004-6600,47.607644,-122.200964,#41,WA1
76,17405,2846,Enatai Elementary School,10700 SE 25th Street,Bellevue,Washington,98007,47.589,-122.197861,#41,WA9
77,17405,2847,Clyde Hill Elementary,9601 NE 24th Street,Bellevue,Washington,98004-2100,47.630945,-122.211939,#48,WA1
78,17405,3036,Eastgate Elementary School,4255 153rd Avenue SE,Bellevue,Washington,98006-1739,47.569958,-122.137179,#41,WA9
79,17405,3100,Stevenson Elementary,14220 NE 8th Street,Bellevue,Washington,98007-4103,47.618471,-122.150372,#48,WA1
80,17405,3166,Highland Middle School,11650 SE 60th ,Bellevue,Washington,98006,47.550384,-122.182692,#41,WA9
81,17405,3167,Woodridge Elementary,12619 SE 20th Place,Bellevue,Washington,98005-4646,47.592034,-122.172915,#41,WA9
82,17405,3168,Phantom Lake Elementary,1050  160th Avenue SE,Bellevue,Washington,98008-5099,47.600452,-122.125513,#41,WA9
83,17405,3224,Puesta del Sol Elementary School,3810  132nd Avenue SE,Bellevue,Washington,98006-1310,47.575525,-122.163833,#41,WA9
84,17405,3225,Lake Hills Elementary,14310 SE 12th Street,Bellevue,Washington,98007-5596,47.60093,-122.148413,#41,WA9
85,17405,3282,Sammamish Senior High,100  140th Avenue SE,Bellevue,Washington,98005-3721,47.608458,-122.152305,#48,WA9
86,17405,3283,Tyee Middle School,13630 S.E. Allen Road,Bellevue,Washington,98006,47.573547,-122.158494,#41,WA9
87,17405,3338,Chinook Middle School,2001 98th Ave NE,Bellevue,Washington,98006,47.627814,-122.210351,#48,WA1
88,17405,3339,Sherwood Forest Elementary,16411 NE 24th Street,Bellevue,Washington,98008-2491,47.630722,-122.120557,#48,WA1
89,17405,3435,Tillicum Middle School,1280 160th Avenue SE,Bellevue,Washington,98008,47.599067,-122.125338,#41,WA9
90,17405,3436,Medina Elementary School,8001 NE 8TH ST.,MEDINA,Washington,98039-4710,47.616751,-122.23402,#48,WA1
91,17405,3437,Newport Heights Elementary,5225 119th Ave SE,Bellevue,Washington,98006-3301,47.555669,-122.180749,#41,WA9
92,17405,3486,Newport Senior High School,4333 Factoria Boulevard SE,Bellevue,Washington,98006-1999,47.567681,-122.172148,#41,WA9
93,17405,3588,Interlake Senior High School,16245 NE 24th Street,Bellevue,Washington,98008-2492,47.629052,-122.124173,#48,WA1
94,17405,3631,Odle Middle School,502 143rd Avenue NE,Bellevue,Washington,98007,47.614414,-122.148651,#48,WA9
95,17405,3633,Ardmore Elementary School,16616 NE 32nd St.,Bellevue,Washington,98008-2006,47.639041,-122.11784,#48,WA1
96,17405,3634,Spiritridge Elementary School,16401 SE 24th Street,Bellevue,Washington,98008-5499,47.587746,-122.1204,#41,WA9
97,17405,3705,Bennett Elementary School,17900 NE 16th Street,Bellevue,Washington,98008,47.624714,-122.101958,#48,WA1
98,17405,3742,Cherry Crest Elementary School,12400 N.E. 32nd St.,Bellevue,Washington,98005,47.640045,-122.173676,#48,WA1
99,17405,3789,Somerset Elementary School,14100 Somerset Boulevard SE,Bellevue,Washington,98006-2399,47.563098,-122.151609,#41,WA9
100,17406,2564,Showalter Middle School,4628 S 144TH ST,TUKWILA,Washington,98168-0000,47.47483,-122.274956,#11,WA9
101,17406,2848,Foster Senior High School,4242 S 144th St,Tukwila,Washington,98168-0000,47.474659,-122.279999,#11,WA9
102,17406,3226,Cascade View Elementary,13601 32nd Avenue S,Tukwila,Washington,98168-0000,47.480894,-122.29326,#11,WA9
103,17406,3488,Tukwila Elementary,5939 S 149TH ST,TUKWILA,Washington,98168-0000,47.46912,-122.259422,#11,WA9
104,17406,3635,Thorndyke Elementary,4415 S 150TH ST,TUKWILA,Washington,98168-0000,47.468377,-122.276643,#11,WA9
105,17407,1756,CLIP,32302 NE 50th Street,Carnation,Washington,98014,47.652339,-121.907977,#12,WA8
106,17407,1854,PARADE,32302 NE 50th St,Carnation,Washington,98014-6332,47.652339,-121.907977,#12,WA8
107,17407,2485,Carnation Elementary School,4950 Tolt Ave,Carnation,Washington,98014-7608,47.651511,-121.911208,#12,WA8
108,17407,3006,Eagle Rock Multiage School,29300 NE 150th St,Duvall,Washington,98019-8523,47.734904,-121.949104,#45,WA8
109,17407,3101,Cherry Valley Elementary School,26701 NE Cherry Valley Rd,Duvall,Washington,98019-8618,47.747195,-121.982123,#45,WA8
110,17407,3524,Cedarcrest High School,29000 NE 150th St,Duvall,Washington,98019-8519,47.735632,-121.952477,#45,WA8
111,17407,4318,Tolt Middle School,3740 Tolt Ave,Carnation,Washington,98014-7537,47.642424,-121.914325,#12,WA8
112,17407,4332,Stillwater Elementary,11530 320th Ave NE,Carnation,Washington,98014-9792,47.700554,-121.909618,#12,WA8
113,17408,2326,Washington Elementary School,20 E ST NE,AUBURN,Washington,98002-5501,47.308184,-122.222248,#47,WA9
114,17408,2394,Cascade Middle School,1015 24TH ST NE,AUBURN,Washington,98002-2430,47.328985,-122.214334,#47,WA9
115,17408,2659,Terminal Park Elementary School,1101 D ST SE,AUBURN,Washington,98002-6013,47.298003,-122.224716,#30,WA9
116,17408,2702,West Auburn Senior High School,401 W MAIN ST,AUBURN,Washington,98001-5275,47.308185,-122.234762,#47,WA9
117,17408,2795,Auburn Senior High School,711 E MAIN ST,AUBURN,Washington,98002-5662,47.308594,-122.219708,#47,WA9
118,17408,2932,Dick Scobee Elementary School,1031 14th ST NE,AUBURN,Washington,98002,47.320798,-122.216218,#47,WA9
119,17408,3169,Olympic Middle School,839 21st ST SE,AUBURN,Washington,98002-8300,47.290601,-122.217501,#30,WA9
120,17408,3227,Pioneer Elementary School,1825 K ST SE,AUBURN,Washington,98002-6914,47.292338,-122.216624,#30,WA9
121,17408,3439,Chinook Elementary School,3502 AUBURN WAY S,AUBURN,Washington,98092-7221,47.289618,-122.181065,#31,WA8
122,17408,3525,Lea Hill Elementary School,30908 124TH AVE SE,AUBURN,Washington,98092-3154,47.324998,-122.1754,#47,WA8
123,17408,3669,Gildo Rey Elementary School,1005 37TH ST SE,AUBURN,Washington,98002-8710,47.278011,-122.216149,#30,WA9
124,17408,3745,Evergreen Heights Elementary,5602 S 316TH ST,AUBURN,Washington,98001-3822,47.319432,-122.264085,#47,WA9
125,17408,3825,Alpac Elementary School,310 MILWAUKEE BLVD N,PACIFIC,Washington,98047-1122,47.270991,-122.248998,#30,WA9
126,17408,4120,Lake View Elementary School,16401 SE 318TH ST,AUBURN,Washington,98092-9285,47.31658,-122.122276,#47,WA8
127,17408,4347,Hazelwood Elementary School,11815 SE 304TH ST,AUBURN,Washington,98092-3115,47.329092,-122.183629,#47,WA8
128,17408,4385,Rainier Middle School,30620 116TH AVE SE,AUBURN,Washington,98092-3161,47.327407,-122.18555,#47,WA8
129,17408,4417,Ilalko Elementary School,301 ORAVETZ PL SE,AUBURN,Washington,98092-8601,47.263971,-122.227477,#31,WA8
130,17408,4462,Mt Baker Middle School,620 37TH ST SE,AUBURN,Washington,98002-8011,47.274526,-122.220142,#30,WA8
131,17408,4474,Auburn Riverside High School,501 ORAVETZ RD SE,AUBURN,Washington,98092-8621,47.266104,-122.22468,#31,WA8
132,17409,2849,Tahoma Senior High School,23499 SE Tahoma Way,Maple Valley,Washington,98038,47.357666,-122.028833,#5,WA8
133,17409,3286,Lake Wilderness Elementary,24216 Witte Road SE,Maple Valley,Washington,98038-6827,47.384242,-122.045045,#5,WA8
134,17409,3341,Summit Trail Middle School,25600 SE Summit Landsburg Rd,Ravensdale,Washington,98051,47.372814,-122.000253,#5,WA8
135,17409,3589,Shadow Lake Elementary,22620 Sweeney Road SE,Maple Valley,Washington,98038-6416,47.398901,-122.047133,#47,WA8
136,17409,3937,Maple View Middle School,18200 SE 240th ST,Covington,Washington,98042,47.388316,-122.100307,#47,WA8
137,17409,4415,Rock Creek Elementary,25700 MAPLE VALLEY BLK DIAM RD,Maple Valley,Washington,98038-8307,47.409304,-121.969445,#5,WA8
138,17409,4453,Glacier Park Elementary,23700 SE 280th Street,Maple Valley,Washington,98038-8198,47.351609,-122.02558,#5,WA8
139,17410,1502,Two Rivers School,8651 Meadowbrook Way SE,Snoqualmie,Washington,98065,47.522779,-121.816888,#5,WA8
140,17410,2124,Snoqualmie Middle School,9200 RAILROAD AVE SE,SNOQUALMIE,Washington,98065-0000,47.51828,-121.814337,#5,WA8
141,17410,2222,Fall City Elementary,Box 220,Fall City,Washington,98024-0000,47.56682,-121.90213,#12,WA8
142,17410,2287,North Bend Elementary School,400 E THIRD ST,NORTH BEND,Washington,98045-0000,47.494042,-121.77927,#12,WA8
143,17410,2288,Snoqualmie Elementary,755 PARK ST,SNOQUALMIE,Washington,98065-0000,47.526053,-121.819996,#5,WA8
144,17410,2850,Mount Si High School,8651 MEADOWBROOK WAY SE,SNOQUALMIE,Washington,98065-0000,47.522779,-121.816888,#5,WA8
145,17410,4308,Edwin R Opstad Elementary,1345 STILLSON AVE SE,NORTH BEND,Washington,98045-0000,47.480211,-121.766952,#5,WA8
146,17410,4397,Chief Kanim Middle School,Box 639,Fall City,Washington,98024-0000,47.56682,-121.90213,#12,WA8
147,17411,1624,Issaquah Special Services,5150 220th Ave SE,ISSAQUAH,Washington,98029,47.554633,-122.047309,#41,WA8
148,17411,2738,Clark Elementary,335 First Avenue SE,ISSAQUAH,Washington,98027-4315,47.526269,-122.034826,#5,WA8
149,17411,3038,Issaquah Middle School,600 2ND AVE SE,ISSAQUAH,Washington,98027-4318,47.524486,-122.028813,#5,WA8
150,17411,3228,Sunset Elementary,4229 W LAKE SAMM PKWY SE,BELLEVUE,Washington,98008-5981,47.605867,-122.111082,#41,WA1
151,17411,3385,Issaquah High School,700 2ND AVE SE,ISSAQUAH,Washington,98027-4319,47.522361,-122.028715,#5,WA8
152,17411,3386,Sunny Hills Elementary,3200 ISSAQUAH-PINE LAKE RD SE,SAMMAMISH,Washington,98075-7528,47.580035,-122.027917,#41,WA8
153,17411,3440,Briarwood Elementary,17020 SE 134TH ST,RENTON,Washington,98059-7020,47.483521,-122.11543,#5,WA8
154,17411,3569,Echo Glen School,33010 SE 99TH ST,SNOQUALMIE,Washington,98065-9798,47.518006,-121.901419,#5,WA8
155,17411,3636,Maywood Middle School,14490 168TH AVE SE,RENTON,Washington,98059-7951,47.471434,-122.114921,#5,WA8
156,17411,3637,Maple Hills Elementary,15644 204TH AVE SE,RENTON,Washington,98059-5018,47.462194,-122.066311,#5,WA8
157,17411,3673,Issaquah Valley Elementary,555 NW HOLLY ST,ISSAQUAH,Washington,98027-2834,47.536629,-122.045374,#5,WA8
158,17411,3746,Apollo Elementary,15025 SE 117TH ST,RENTON,Washington,98059-6017,47.497347,-122.138866,#5,WA8
159,17411,3879,Pine Lake Middle School,3095 Issaquah-Pine Lake Rd,SAMMAMISH,Washington,98075,47.580144,-122.032145,#41,WA8
160,17411,3962,Liberty Sr High School,16655 SE 136TH ST,RENTON,Washington,98059-6950,47.480072,-122.117753,#5,WA8
161,17411,4300,Challenger Elementary,25200 SE KLAHANIE BLVD,ISSAQUAH,Washington,98029-5763,47.577392,-122.003976,#5,WA8
162,17411,4375,Cougar Ridge Elementary,4630 167TH AVE SE,BELLEVUE,Washington,98006-5837,47.561836,-122.117482,#41,WA9
163,17411,4376,Discovery Elementary,2300 228TH AVE SE,ISSAQUAH,Washington,98075,47.589139,-122.034284,#41,WA8
164,17411,4460,Beaver Lake Middle School,25025 SE 32ND ST,ISSAQUAH,Washington,98029-7738,47.579903,-122.005692,#5,WA8
165,17411,4493,Endeavour Elementary School,26205 SE ISSAQUAH-FALL CITY RD,ISSAQUAH,Washington,98029-9114,47.57042,-121.988265,#5,WA8
166,17411,4495,Skyline High School,1122 228TH AVE SE,SAMMAMISH,Washington,98075-9509,47.60004,-122.031415,#41,WA8
167,17411,4565,Cascade Ridge Elementary,2020 TROSSACHS BLVD SE,SAMMAMISH,Washington,98075-0000,47.59122,-121.973166,#41,WA8
168,17412,1667,Handicapped Contractual Services,18560 1st Avenue N.E.,Shoreline,Washington,98155-2148,47.764102,-122.328886,#32,WA7
169,17412,1771,Home Education Exchange,2800 NE 200th,Shoreline,Washington,98155,47.774636,-122.299582,#32,WA7
170,17412,2185,Lake Forest Park Elementary,18500 37th Avenue N.E.,Lake Forest Park,Washington,98155-2799,47.763243,-122.288535,#1,WA7
171,17412,2612,Fircrest Residential Habilitation,15230 15th N.E.,Shoreline,Washington,98155-0000,47.741135,-122.308476,#32,WA7
172,17412,2703,Ridgecrest Elementary,16516 10th Avenue N.E.,Shoreline,Washington,98155-5904,47.749143,-122.317656,#32,WA7
173,17412,2990,Briarcrest Elementary,2715 N.E. 158th Street,Shoreline,Washington,98155-6443,47.742243,-122.297731,#32,WA7
174,17412,3104,Echo Lake Elementary School,19345 Wallingford Ave. N.,Shoreline,Washington,98133-4155,47.770066,-122.339148,#32,WA7
175,17412,3230,Brookside Elementary,17447 37th Avenue N.E.,Lake Forest Park,Washington,98155-5499,47.754608,-122.289743,#1,WA7
176,17412,3231,Highland Terrace Elementary,100 N. 160th Street,Shoreline,Washington,98133-5698,47.745693,-122.359436,#32,WA7
177,17412,3343,Shorecrest High School,15343 25th Avenue N.E.,Shoreline,Washington,98155-7394,47.740989,-122.304048,#32,WA7
178,17412,3387,Kellogg Middle School,16045 25th Avenue N.E.,Shoreline,Washington,98155-6426,47.745724,-122.30302,#32,WA7
179,1109,3075,Washtucna Elementary/High School,730 East Booth Avenue,Washtucna,Washington,99371-0688,46.752189,-118.311231,#9,WA5
180,1122,3142,Benge Elementary,2978 E. Benge-Winona Rd.,Benge,Washington,99105-0697,46.916719,-118.084226,#9,WA5
181,1147,2902,Lutacaga Elementary,795 S 7th Ave,Othello,Washington,99344-1463,46.817279,-119.165257,#15,WA4
182,1147,2961,Hiawatha Elementary School,506 N 7th Ave,Othello,Washington,99344-1463,46.8325,-119.16488,#15,WA4
183,1147,3015,Othello High School,340 S 7th Ave,Othello,Washington,99344-1463,46.82271,-119.165246,#15,WA4
184,1147,3471,McFarland Middle School,790 S 10th Ave ,Othello,Washington,99344-1463,46.816975,-119.160597,#15,WA4
185,1147,3730,Scootney Springs Elementary,695 S 14th Ave,Othello,Washington,99344-1463,46.820139,-119.154359,#15,WA4
186,1158,2903,Lind-Ritzville High School,209 E Wellsandt Rd,Ritzville,Washington,99169,47.125588,-118.292516,#9,WA5
187,1158,3421,Lind Elementary School,PO BOX 340,Lind,Washington,99341-0340,46.904229,-118.690546,#9,WA5
188,1160,2132,Ritzville High School,209 E Wellsandt Avenue,Ritzville,Washington,99169-1674,47.125588,-118.292516,#9,WA5
189,1160,2719,Ritzville Grade School,401 E 6th Ave.,Ritzville,Washington,99169-1674,47.125902,-118.371532,#9,WA5
190,2250,1617,Educational Opportunity Center,1284 Chestnut St,Clarkston,Washington,99403-2557,46.411019,-117.057521,#9,WA5
191,2250,2299,Charles Francis Adams High School,401 Chestnut St,Clarkston,Washington,99403-2673,46.410724,-117.044772,#9,WA5
192,2250,2501,Lincoln Middle School,1945 4th Ave,Clarkston,Washington,99403-1319,46.392499,-117.079412,#9,WA5
193,2250,2823,Parkway Elementary,1103 4th St,Clarkston,Washington,99403-2603,46.408925,-117.043011,#9,WA5
194,2250,2962,Grantham Elementary,1253 Poplar St,Clarkston,Washington,99403-2248,46.41795,-117.055889,#9,WA5
195,2250,3266,Highland Elementary,1432 Highland St,Clarkston,Washington,99403-2964,46.403769,-117.067122,#9,WA5
196,2250,3616,Special Services,1294 Chestnut St,Clarkston,Washington,99403-0070,46.411019,-117.058345,#9,WA5
197,2250,4384,Heights Elementary,1917 4th Ave,Clarkston,Washington,99403-1319,46.392499,-117.078134,#9,WA5
198,2420,2434,Asotin Jr Sr High,PO BOX 489,ASOTIN,Washington,99402-0000,46.33933,-117.04821,#9,WA5
199,2420,2507,Asotin Elementary,PO Box 489,ASOTIN,Washington,99402-0000,46.33933,-117.04821,#9,WA5
200,3017,1884,Legacy High School,4624 W 10th Ave,KENNEWICK,Washington,99338,46.199694,-119.184062,#8,WA4
201,3017,2000,Keewaydin Discovery Center,125 S Conway Pl,KENNEWICK,Washington,99336-5633,46.207711,-119.156065,#16,WA4
202,3017,2824,Eastgate Elementary School,910 EAST 10TH AVENUE,KENNEWICK,Washington,99336-5926,46.198053,-119.103021,#16,WA4
203,3017,2825,Westgate Elementary School,2514 WEST 4TH AVENUE,KENNEWICK,Washington,99336-3180,46.205967,-119.155087,#16,WA4
204,3017,2826,Kennewick High School,201 S Garfield St,Kennewick,Washington,99336,46.206332,-119.126476,#16,WA4
205,3017,3077,Hawthorne Elementary School - Kennewick,3520 WEST JOHN DAY AVENUE,KENNEWICK,Washington,99336-2456,46.217881,-119.168516,#16,WA4
206,3017,3144,Washington Elementary School,105 WEST 21ST AVENUE,KENNEWICK,Washington,99337-4999,46.189063,-119.119107,#16,WA4
207,3017,3267,Highlands Middle School,425 SOUTH TWEEDT STREET,KENNEWICK,Washington,99336-4399,46.205416,-119.178108,#16,WA4
208,3017,3315,Edison Elementary School - Kennewick,201 SOUTH DAWES STREET,KENNEWICK,Washington,99336-2047,46.20853,-119.190527,#8,WA4
209,3017,3369,Vista Elementary School,1701 NORTH YOUNG STREET,KENNEWICK,Washington,99336-1199,46.22802,-119.218458,#8,WA4
210,3017,3472,Park Middle School,1011 WEST 10TH AVENUE,KENNEWICK,Washington,99336-6097,46.19829,-119.130536,#16,WA4
211,3017,3731,Kamiakin High School,600 NORTH ARTHUR STREET,KENNEWICK,Washington,99336-2196,46.216464,-119.18712,#16,WA4
212,3017,4007,Benton/Franklin Juvenile Justice Center,5606 WEST CANAL DRIVE,KENNEWICK,Washington,99336-1300,46.224092,-119.195874,#8,WA4
213,3017,4028,Desert Hills Middle School,1701 S Clodfelter Rd,KENNEWICK,Washington,99338-1400,46.193844,-119.253637,#8,WA4
214,3017,4072,Canyon View Elementary School,1229 WEST 22ND PLACE,KENNEWICK,Washington,99337-4224,46.188379,-119.135758,#16,WA4
215,3017,4073,Southgate Elementary School,3121 WEST 19TH AVENUE,KENNEWICK,Washington,99337-2399,46.191402,-119.165249,#8,WA4
216,3017,4118,Tri-Tech Skills Center,5929 WEST METALINE AVENUE,KENNEWICK,Washington,99336-1494,46.219565,-119.200948,#8,WA4
217,3017,4136,Sunset View Elementary School,711 NORTH CENTER PARKWAY,KENNEWICK,Washington,99336-8100,46.217319,-119.234648,#8,WA4
218,3017,4181,Lincoln Elementary School,4901 WEST 21ST AVENUE,KENNEWICK,Washington,99338-1818,46.190369,-119.18703,#8,WA4
219,3017,4202,Cascade Elementary School,505 SOUTH HIGHLAND DRIVE,KENNEWICK,Washington,99337-5112,46.172889,-119.125531,#16,WA4
220,3017,4418,Amistad Elementary School,123 S Kent St,KENNEWICK,Washington,99336-6061,46.207578,-119.133786,#16,WA4
221,3017,4429,Horse Heaven Hills Middle School,3500 SOUTH VANCOUVER STREET,KENNEWICK,Washington,99337-3749,46.177606,-119.148664,#8,WA4
222,3017,4446,Ridge View Elementary School,7001 WEST 13TH AVENUE,KENNEWICK,Washington,99338-1339,46.196862,-119.216796,#8,WA4
223,3017,4484,Southridge High School,3320 Southridge Boulevard,KENNEWICK,Washington,99338-1976,46.179867,-119.1914,#8,WA4
224,3050,2133,Paterson Elementary School,51409 W. Prior Rd.,Paterson,Washington,99345-0189,45.93861,-119.609223,#16,WA4
225,3052,2759,Kiona-Benton City Primary School,1105 Dae Avenue,Benton City,Washington,99320,46.24204,-119.483517,#15,WA4
226,3052,2904,Kiona-Benton City High School,1105 Dale Avenue,Benton City,Washington,99320-9705,46.263821,-119.491177,#16,WA4
227,3052,3961,Kiona-Benton City Middle School,1105 Dale Avenue,Benton City,Washington,99320-9705,46.263821,-119.491177,#16,WA4
228,3052,4217,Kiona-Benton Intermediate School,1105 Dale Aveune,Benton City,Washington,99320-9705,46.24204,-119.483517,#15,WA4
229,3053,2367,River View High School,36509 S LEMON DR,KENNEWICK,Washington,99337-9180,46.155253,-119.037182,#16,WA4
230,3053,3078,Finley Elementary,213504 E COUGAR RD,KENNEWICK,Washington,99337-7203,46.14389,-119.053008,#16,WA4
231,3053,4031,Finley Middle School,37208 S FINLEY RD,KENNEWICK,Washington,99337-7574,46.154957,-119.034706,#16,WA4
232,3116,2195,Keene-Riverview Elementary,832 Park Ave.,Prosser,Washington,99350-0000,46.200548,-119.775672,#16,WA4
233,3116,2508,Prosser High School,1203 Prosser Ave.,Prosser,Washington,99350-1430,46.203649,-119.767241,#16,WA4
234,3116,2905,Whitstran Elementary,102101 W. Foisy Road,Prosser,Washington,99350-5666,46.235194,-119.708648,#16,WA4
235,3116,2906,Housel Middle School,2001 Highland Drive,Prosser,Washington,99350-1597,46.20922,-119.753536,#16,WA4
236,3116,3316,Prosser Heights Elementary,2008 Miller Ave.,Prosser,Washington,99350-1535,46.211484,-119.753628,#16,WA4
237,3400,2001,Special Programs,615 Snow Ave.,Richland,Washington,99352-0000,46.273929,-119.293951,#8,WA4
238,3400,2642,Jefferson Elementary,1550 George Washington Way,Richland,Washington,99352-0000,46.293331,-119.274171,#8,WA4
239,3400,2656,Marcus Whitman Elementary,1704 Gray St.,Richland,Washington,99352-0000,46.273219,-119.294857,#8,WA4
240,3400,2657,Lewis & Clark Elementary School,415 Jadwin,Richland,Washington,99352-0000,46.270567,-119.276493,#8,WA4
241,3400,2721,Carmichael Middle School,620 Thayer Drive,Richland,Washington,99352-0000,46.273952,-119.289057,#8,WA4
242,3400,2785,Chief Joseph Middle School,504 Wilson,Richland,Washington,99352-0000,46.296137,-119.282847,#8,WA4
243,3400,2786,Jason Lee Elementary School,1750 McMurray,Richland,Washington,99352-0000,46.295339,-119.294382,#8,WA4
244,3400,3469,Twin Rivers Group Home,605 MCMURRAY,RICHLAND,Washington,99352-2239,46.299985,-119.277777,#8,WA4
245,3400,3511,Richland High School,930 Long Ave,Richland,Washington,99352-0000,46.278435,-119.288273,#8,WA4
246,3400,3732,Sacajawea Elementary,535 Fuller St.,Richland,Washington,99352-0000,46.308041,-119.275806,#8,WA4
247,3400,3833,Hanford High School,450 Hanford Street,Richland,Washington,99352-0000,46.325664,-119.267841,#8,WA4
248,3400,3926,Enterprise Middle School,5200 Paradise Way,West Richland,Washington,99353,46.286228,-119.352802,#16,WA4
249,3400,4059,Tapteal Elementary School,2100 Sunshine Ave,West Richland,Washington,99353-0000,46.28493,-119.371327,#16,WA4
250,3400,4060,Badger Mountain Elementary,1515 Elementary Street,Richland,Washington,99352-0000,46.233607,-119.270911,#8,WA4
251,3400,4295,Rivers Edge High School,975 Gillespie,Richland,Washington,99352-0000,46.27249,-119.277102,#8,WA4
252,3400,4543,William Wiley Elementary School,2820 S Highlands Blvd,West Richland,Washington,99353-0000,46.276597,-119.357223,#16,WA4
253,4019,2196,Manson Elementary,PO BOX A,MANSON,Washington,98831-0000,47.88486,-120.15841,#12,WA8
254,4019,2623,Manson High School,PO BOX A,Manson,Washington,98831,47.88486,-120.15841,#12,WA8
255,4069,2265,Stehekin Elementary,PO Box 37,Stehekin,Washington,98852-0037,48.3093,-120.65649,#12,WA8
256,4127,2688,Paul Rumburg Elementary,2650 ENTIAT WAY,ENTIAT,Washington,98822-0000,47.664507,-120.22598,#12,WA8
257,4127,3317,Entiat Middle and High School,2650 ENTIAT WAY,ENTIAT,Washington,98822-0000,47.664507,-120.22598,#12,WA8
258,4129,1675,Lake Chelan Preschool,PO Box 369,Chelan,Washington,98816-0000,47.876985,-120.07775,#12,WA8
259,4129,2317,Chelan Middle School,PO Box 369,Chelan,Washington,98816-0000,47.876985,-120.07775,#12,WA8
260,4129,2689,Morgen Owings Elementary School,PO Box 369,Chelan,Washington,98816-0000,47.876985,-120.07775,#12,WA8
261,4129,3861,Holden Village Community School,HCOO Stop 2,Chelan,Washington,98816-0000,47.876985,-120.07775,#12,WA8
262,4129,4260,Chelan High School,PO Box 369,Chelan,Washington,98816-0000,47.876985,-120.07775,#12,WA8
263,4222,2315,CASHMERE MIDDLE SCHOOL,300 Tigner Road,Cashmere,Washington,98815-1250,47.515657,-120.477094,#12,WA8
264,4222,2787,VALE ELEMENTARY SCHOOL,101 Pioneer Avenue,Cashmere,Washington,98815-1225,47.517712,-120.471521,#12,WA8
265,4222,3268,CASHMERE HIGH SCHOOL,329 Tigner Road,Cashmere,Washington,98815-1249,47.51315,-120.479061,#12,WA8
266,4228,2760,Peshastin Dryden Elementary,10001 School Street,Peshastin,Washington,98847,47.567996,-120.602881,#12,WA8
267,4228,2827,Alpine Lakes Elementary,500 Pine Street,Leavenworth,Washington,98826-1215,47.601581,-120.661594,#12,WA8
268,4228,3564,Cascade High School,10190 Chumstick Hwy,Leavenworth,Washington,98826-9113,47.602066,-120.654659,#12,WA8
269,4228,4403,Icicle River Middle School,10195 Titus Rd,Leavenworth,Washington,98826-9598,47.602075,-120.65621,#12,WA8
270,4228,4566,Beaver Valley School,19265 Beaver Valley Rd,Leavenworth,Washington,98826-0000,47.769865,-120.665224,#12,WA8
271,4246,1612,Skill Source,233 North Chelan ,Wenatchee,Washington,98801-0000,47.427368,-120.316551,#12,WA8
272,4246,1613,Westside High School,1510 Ninth St,Wenatchee,Washington,98801-0000,47.433983,-120.340174,#12,WA8
273,4246,1802,Chelan County Juvenile Detention Center,316 WASHINGTON ST,WENATCHEE,Washington,98801-0000,47.421845,-120.315493,#12,WA8
274,4246,2134,Wenatchee High School,1101 MILLERDALE AVE,WENATCHEE,Washington,98801-0000,47.410406,-120.326446,#12,WA8
275,4246,2279,Lewis And Clark Elementary Sch,1130 PRINCETON,WENATCHEE,Washington,98801-0000,47.438273,-120.330603,#12,WA8
276,4246,2301,Columbia Elementary School,600 ALASKA ST,WENATCHEE,Washington,98801-0000,47.418663,-120.320927,#12,WA8
277,4246,2347,Mission View Elementary School,60 TERMINAL AVENUE,WENATCHEE,Washington,98801-0000,47.398773,-120.29934,#12,WA8
278,4246,2907,Washington Elementary School,1401 WASHINGTON ST.,WENATCHEE,Washington,98801-0000,47.42198,-120.337197,#12,WA8
279,4246,3208,Sunnyslope Elementary School,3109 SCHOOL STREET,WENATCHEE,Washington,98801-0000,47.473223,-120.345559,#12,WA8
280,4246,3209,Abraham Lincoln Elementary,1224 METHOW ST.,WENATCHEE,Washington,98801-0000,47.407035,-120.30951,#12,WA8
281,4246,3210,Pioneer Middle School,1620 RUSSELL ST,WENATCHEE,Washington,98801-0000,47.412333,-120.322649,#12,WA8
282,4246,3269,Castlerock Early Learning Center,112 SO. ELLIOTT STREET,WENATCHEE,Washington,98801-0000,47.573816,-120.351884,#12,WA8
283,4246,3370,Orchard Middle School,1024 ORCHARD AVE,WENATCHEE,Washington,98801-0000,47.426493,-120.325771,#12,WA8
284,4246,4423,John Newbery Elementary,850 N. WESTERN,WENATCHEE,Washington,98801-0000,47.432796,-120.348123,#12,WA8
285,4246,4432,Foothills Middle School,1410 MAPLE ST,WENATCHEE,Washington,98801-0000,47.443118,-120.33601,#12,WA8
286,5121,1897,Special Education,216 E 4TH ST,PORT ANGELES,Washington,98362-3200,48.114992,-123.433307,#24,WA6
287,5121,2368,Jefferson Elementary,218 E 12TH ST,PORT ANGELES,Washington,98362-7814,48.107895,-123.439891,#24,WA6
288,5121,2908,Port Angeles High School,304 E PARK AVE,PORT ANGELES,Washington,98362-6934,48.101478,-123.442513,#24,WA6
289,5121,2909,Franklin Elementary,2505 S WASHINGTON ST,PORT ANGELES,Washington,98362-6763,48.102482,-123.423215,#24,WA6
290,5121,3079,Hamilton Elementary,1822 W 7TH ST,PORT ANGELES,Washington,98363-5206,48.127713,-123.473246,#24,WA6
291,18801,3143,Clallam Co Juvenile Detention,1912 W 18TH ST,PORT ANGELES,Washington,98363-5121,48.118545,-123.481078,#24,WA6
292,5121,3318,Stevens Middle School,1139 W 14TH ST,PORT ANGELES,Washington,98363-7035,48.116378,-123.464417,#24,WA6
293,5121,4003,Lincoln High School,924 W 9TH ST,PORT ANGELES,Washington,98363-5748,48.118729,-123.456831,#24,WA6
294,5121,4494,Dry Creek Elementary,25 RIFE RD,PORT ANGELES,Washington,98363-8433,48.113069,-123.53929,#24,WA6
295,5313,3473,Crescent School,P. O. Box 20,Joyce,Washington,98343-0020,48.138272,-123.729934,#24,WA6
296,5323,1708,Olympic Peninsula Academy,400 N. 2nd Ave,Sequim,Washington,98382-3356,48.082848,-123.10449,#24,WA6
297,5323,2471,Sequim Senior High,601 N. Sequim Ave.,Sequim,Washington,98382-0000,48.086491,-123.104454,#24,WA6
298,5323,2722,Helen Haller Elementary School,350 W. Fir Street,Sequim,Washington,98382-0000,48.084785,-123.10647,#24,WA6
299,5323,4378,Greywolf Elementary School,171 Carlsborg Rd.,Sequim,Washington,98382-0000,48.081648,-123.175691,#24,WA6
300,5323,4519,Sequim Middle School,301 W. Hendrickson Rd.,Sequim,Washington,98382-0000,48.086437,-123.108259,#24,WA6
301,5401,1787,Cape Flattery Preschool,Box 109,Sekiu,Washington,98381-0109,48.288633,-124.397803,#24,WA6
302,5401,2594,Neah Bay Elementary School,3560 Deer Street,Neah Bay,Washington,98357-0086,48.363523,-124.623027,#24,WA6
303,5401,3145,Neah Bay Junior/ Senior High School,3560 Deer Street,Neah Bay,Washington,98357-0086,48.363523,-124.623027,#24,WA6
304,5401,3422,Clallam Bay High & Elementary,P.O. Box 337,Clallam Bay,Washington,98326-0337,48.199745,-124.390233,#24,WA6
305,5402,1500,Forks Alternative School,411 S Spartan Ave,Forks,Washington,98331-0000,47.946475,-124.383849,#24,WA6
306,5402,1671,District Run Home School,411 S Spartan Avenue,Forks,Washington,98331-9027,47.946475,-124.383849,#24,WA6
307,5402,2349,Forks Junior-Senior High School,261 South Spartan Avenue,Forks,Washington,98331-0000,47.947914,-124.382133,#24,WA6
308,5402,3737,Forks Elementary School,301 South Elderberry Ave,Forks,Washington,98331-0000,47.949272,-124.381487,#24,WA6
309,6037,1574,Fir Grove Childrens Center,2920 FALK RD,VANCOUVER,Washington,98661-5604,45.64261,-122.629659,#49,WA3
310,6037,1689,Vancouver School of Arts and Academics,3101 MAIN ST,VANCOUVER,Washington,98663-2751,45.643611,-122.668187,#49,WA3
311,6037,1738,Gate Program,3100 E 18TH ST,VANCOUVER,Washington,98661-5645,45.635896,-122.639116,#49,WA3
312,6037,2179,Fort Vancouver High School,5700 E 18TH ST,VANCOUVER,Washington,98661-6898,45.636222,-122.612229,#49,WA3
313,6037,2318,Lincoln Elementary School,4200 DANIELS ST,VANCOUVER,Washington,98660-1799,45.652203,-122.674982,#49,WA3
314,6037,2610,Hough Elementary School,1900 DANIELS ST,VANCOUVER,Washington,98660-2535,45.63606,-122.675958,#49,WA3
315,6037,2636,Early Childhood Education Center,PO BOX 8937,VANCOUVER,Washington,98668-8937,45.678996,-122.720499,#49,WA3
316,6037,2637,Fruit Valley Elementary School,3410 NW FRUIT VALLEY RD,VANCOUVER,Washington,98680-1215,45.646527,-122.692551,#49,WA3
317,6037,2643,Harney Elementary School,3212 E EVERGREEN BLVD,VANCOUVER,Washington,98661-4928,45.626702,-122.636842,#49,WA3
318,6037,2644,Peter S Ogden Elementary,3200 NE 86TH AVENUE,VANCOUVER,Washington,98662-7299,45.645123,-122.58704,#49,WA3
319,6037,2690,Hazel Dell Elementary School,511 NE ANDERSON RD,VANCOUVER,Washington,98665-8313,45.671328,-122.666089,#49,WA3
320,6037,2723,Minnehaha Elementary School,2800 NE 54TH ST,VANCOUVER,WASHINGTON,98663-1945,45.662776,-122.64246,#49,WA3
321,6037,2828,Walnut Grove Elementary,6103 NE 72ND AVE,VANCOUVER,Washington,98661-1998,45.666225,-122.597477,#49,WA3
322,6037,2964,Salmon Creek Elementary,1601 NE 129TH ST,VANCOUVER,Washington,98685-3199,45.713692,-122.655406,#18,WA3
323,6037,3016,Sarah J Anderson Elementary,2215 NE 104TH ST,VANCOUVER,Washington,98686-5641,45.695774,-122.648961,#18,WA3
324,6037,3017,Lake Shore Elementary,9300 NW 21ST AVE,VANCOUVER,Washington,98665-6619,45.688458,-122.694135,#18,WA3
325,6037,3080,Benjamin Franklin Elementary,5206 FRANKLIN ST,VANCOUVER,Washington,98663-1698,45.659937,-122.678618,#49,WA3
326,6037,3081,Hudson's Bay High School,1601 E MCLOUGHLIN BLVD,VANCOUVER,Washington,98663-3528,45.630936,-122.655543,#49,WA3
327,6037,3146,Mcloughlin Middle School,5802 MACARTHUR BLVD,VANCOUVER,Washington,98661-7491,45.624304,-122.610391,#49,WA3
328,6037,3423,Columbia River High,800 NW 99TH ST,VANCOUVER,Washington,98665-7599,45.694747,-122.678635,#18,WA3
329,6037,3424,George C Marshall Elementary,6400 MACARTHUR BLVD,VANCOUVER,Washington,98661-7533,45.624304,-122.610391,#49,WA3
330,6037,3543,Jason Lee Middle School,8500 NW 9TH AVE,VANCOUVER,Washington,98665-7799,45.683556,-122.681541,#18,WA3
331,6037,3565,Washington Elementary,2908 S ST,VANCOUVER,Washington,98663-2932,45.643235,-122.652399,#49,WA3
332,6037,3733,Dwight D Eisenhower Elementary,9201 NW 9TH AVE,VANCOUVER,Washington,98665-7628,45.688347,-122.677912,#18,WA3
333,6037,3734,Martin Luther King Elementary,8100 NE 28 ST,VANCOUVER,Washington,98661-6598,45.642797,-122.590655,#49,WA3
334,6037,3735,Harry S Truman Elementary School,4505 NE 42ND AVE,VANCOUVER,Washington,98661-2811,45.654515,-122.627888,#49,WA3
335,34974,3799,Washington State School for the Blind,2214 E. 13th St.,Vancouver,Washington,98661-4120,45.631252,-122.648126,#49,WA3
336,6037,3902,Gaiser Middle School,3000 NE 99TH ST,VANCOUVER,Washington,98665-9262,45.69508,-122.63978,#18,WA3
337,6037,3932,Lewis and Clark High School,2901 GENERAL ANDERSON AVE,VANCOUVER,Washington,98661-6181,45.642345,-122.620862,#49,WA3
338,6037,4034,Sacajawea Elementary School,700 NE 112TH ST,VANCOUVER,Washington,98685-3930,45.702882,-122.66552,#18,WA3
339,6037,4075,Felida Elementary School,2700 NW 119TH ST,VANCOUVER,Washington,98685-3699,45.708684,-122.700516,#18,WA3
340,34975,4246,Washington State School for the Deaf,611 Grand Blvd,Vancouver,Washington,98661-4918,45.624503,-122.63909,#49,WA3
341,6037,4405,Chinook Elementary School,1900 NW BLISS RD,VANCOUVER,Washington,98685-1824,45.724073,-122.690756,#18,WA3
342,6037,4406,Alki Middle School,1800 NW BLISS RD,VANCOUVER,WASHINGTON,98685-1823,45.724275,-122.685554,#18,WA3
343,6037,4410,Roosevelt Elementary School,2921 FALK RD,VANCOUVER,Washington,98661-5683,45.644064,-122.627372,#49,WA3
344,6037,4503,Discovery Middle School,800 E 40TH ST,VANCOUVER,Washington,98663-1874,45.653036,-122.664798,#49,WA3
345,6037,4504,Skyview High School,1300 NW 139TH ST,VANCOUVER,Washington,98685-1858,45.724275,-122.685554,#18,WA3
346,6098,3319,Hockinson Middle School,15916 NE 182ND AVE,BRUSH PRAIRIE,Washington,98606-0000,45.739709,-122.488895,#17,WA3
347,6098,4568,Hockinson High School,16819 NE 159 ST,BRUSH PRAIRIE,Washington,98606-0000,45.733954,-122.499666,#17,WA3
348,6101,2558,La Center Elementary,PO Box 1810,La Center,Washington,98629,45.881459,-122.615416,#20,WA3
349,6101,3371,La Center Middle School,PO Box 1750,La Center,Washington,98629-0000,45.881459,-122.615416,#20,WA3
350,6101,4431,La Center High School,PO BOX 1780,La Center,Washington,98629,45.881459,-122.615416,#20,WA3
351,6103,2484,Green Mountain School,13105 NE GRINNELL RD,WOODLAND,Washington,98674-3808,45.947869,-122.53844,#20,WA3
352,6112,2509,Hathaway Elementary,630 24th St,Washougal,Washington,98671-1652,45.581146,-122.345584,#17,WA3
353,6112,2911,Gause Elementary,1100 34th Street,Washougal,Washington,98671-1907,45.584605,-122.331705,#17,WA3
354,6112,3147,Washougal High School,1201 39th St,Washougal,Washington,98671-9112,45.584926,-122.328974,#17,WA3
355,6112,3270,Cape Horn Skye Elementary,9731 Washougal River Rd,Washougal,Washington,98671-7832,45.610623,-122.233578,#17,WA3
356,6112,4207,Jemtegaard Middle School,35300 SE Evergreen Hwy,Washougal,Washington,98671-6736,45.576133,-122.310313,#17,WA3
357,6112,4549,Canyon Creek Middle School,9731 Washougal River Rd,Washougal,Washington,98671-7832,45.610623,-122.233578,#17,WA3
358,6114,1530,Early Childhood Center,13501 NE 28th Street,Vancouver,Washington,98682,45.640937,-122.533316,#49,WA3
359,6114,1646,49th Street Academy,14619B NE 49th Street,Vancouver,Washington,98682-6308,45.65646,-122.522713,#49,WA3
360,6114,2724,Evergreen High School,14300 NE 18th Street,Vancouver,Washington,98684-7807,45.636621,-122.525453,#17,WA3
361,6114,2829,Mill Plain Elementary School,400 SE 164th Avenue,Vancouver,Washington,98684-9611,45.618349,-122.506082,#17,WA3
362,6114,2912,Orchards Elementary School,11405 NE 69th Street,Vancouver,Washington,98662,45.672564,-122.557529,#18,WA3
363,6114,3148,Ellsworth Elementary School,512 SE Ellsworth Avenue,Vancouver,Washington,98664-5149,45.617073,-122.562577,#49,WA3
364,6801,5290,Clark County Juvenile Detention School,PO Box 5000,Vancouver,Washington,98660,45.678996,-122.720499,#49,WA3
365,17001,5292,Cascadia Elementary,1700 N 90th Street,Seattle,Washington,98115,47.695178,-122.337196,#46,WA7
366,1158,5293,Lind-Ritzville Middle School,PO Box 340,Lind,Washington,99341,46.904229,-118.690546,#9,WA5
367,32360,5294,Phil Snowdon Elementary,6323 S Holly Rd,Cheney,Washington,99004,47.594898,-117.534371,#6,WA5
368,17410,5296,Snoqualmie Parent Partnership Program,9200 Railroad Ave SE,Snoqualmie,Washington,98065,47.51828,-121.814337,#5,WA8
369,27400,5297,Transition Day Students,10903 Gravelly Lake DR SW,Lakewood,Washington,98499,47.158989,-122.519556,#28,WA10
370,27400,5298,Oakridge Group Home,8805 Steilacoom Blvd,Lakewood,Washington,98498,47.181477,-122.559374,#28,WA10
371,27404,5300,Mt. Rainier Parent Partnership,P.O. Box 698,Eatonville,Washington,98328,46.904844,-122.30141,#2,WA8
372,32081,5301,The Community School,1025 W Spofford Ave,Spokane,Washington,99205,47.672035,-117.42775,#3,WA5
373,34979,5302,Washington Youth Academy,1207 Carver St,Bremerton,Washington,98312,47.553382,-122.681814,#26,WA6
374,1160,5303,Lind Ritzville Middle School,PO Box 340,LInd,Washington,99341,46.904229,-118.690546,#9,WA5
375,34801,5305,GRAVITY High School,6005 Tyee Dr. SW,Tumwater,Washington,98512,46.994566,-122.917296,#22,WA10
376,17937,5306,Open Doors at LWIT,11605 132nd Ave NE,Kirkland,Washington,98034,47.70462,-122.16688,#45,WA1
377,27010,5307,Tacoma Open Doors,601 S 8th Street,Tacoma,Washington,98405,47.256375,-122.445821,#27,WA6
378,17405,5308,Jing Mei Elementary School,12635 SE 56th Street,Bellevue,Washington,98006,47.552339,-122.171366,#41,WA9
379,6117,5309,Woodburn Elementary,2400 NE Woodburn Dr,Camas,Washington,98607,45.60319,-122.385326,#17,WA3
380,6114,5310,Henrietta Lacks Health and Bioscience High School,9105 NE 9th Street,Vancouver,Washington,98664,45.627331,-122.579367,#49,WA3
381,6098,5311,Hockinson Heights Elementary School,20000 NE 164th St,Brush Prairie,Washington,98606,45.742647,-122.467667,#17,WA3
382,8122,5312,Discovery High School,2742 Harding Blvd,Longview,Washington,98632,46.139144,-122.956419,#19,WA3
383,17403,5313,Meadow Crest Early Childhood Education Center,1800 Index Ave NE,Renton,Washington,98056-2314,47.508396,-122.180993,#11,WA9
384,17406,5315,Youthsource,Tukwila School District,Tukwila,Washington,98168,47.473988,-122.260956,#11,WA9
385,4246,5316,Open Doors  Re-Engagement Wenatchee,PO Box 2360,Wenatchee,Washington,98807,47.573816,-120.351884,#12,WA8
386,21302,5317,Lewis County Jail,345 NW North Street ,Chehalis,Washington,98532,46.661808,-122.969488,#20,WA3
387,18902,5319,Chief Kitsap Academy,15838 Sandy Hook Rd,Poulsbo,Washington,98370,47.706183,-122.579835,#23,WA6
388,27003,5321,Puyallup Open Doors/POD,716 South Hill Park Drive,Puyalllup,Washington,98373,47.16011,-122.302069,#25,WA10
389,27003,5322,Puyallup Parent Partnership Program,716 South Hill Park Drive,Puyallup,Washington,98373,47.16011,-122.302069,#25,WA10
390,13161,5323,Skill Source Learning Center,309 E. 5th Ave. ,Moses Lake ,Washington,98837,47.129456,-119.273425,#13,WA4
391,17405,5325,Grad Alliance Program,12111 NE 1ST STREET,BELLEVUE,Washington,98005,47.610576,-122.178731,#48,WA9
392,6101,5326,La Center Home School Academy,PO Box 1840,La Center,Washington,98629,45.881459,-122.615416,#20,WA3
393,32356,5328,CVSD Open Doors Programs,19307 E Cataldo Ave,Spokane Valley,Washington,99016-9489,47.666852,-117.144959,#4,WA5
394,31311,5329,Open Doors Youth Reengagement Sultan,13715 310th Ave SE,Sultan,Washington,98296,47.873894,-121.814632,#39,WA8
395,31002,5330,Everett Reengagement Academy,PO Box 2098,Everett,Washington,98213-2999,47.988661,-122.199795,#38,WA2
396,17417,5331,Northshore Online School,3330 Monte Villa Parkway,Bothell,Washington,98021-8972,47.776907,-122.189814,#1,WA1
397,27404,5332,New Beginnings,P.O. Box 698,Eatonville,Washington,98328,46.904844,-122.30141,#2,WA8
398,39119,5334,SELAH ACADEMY REENGAGEMENT PROGRAM ,308 W Naches Ave,Selah,Washington,98942,46.653586,-120.533828,#14,WA4
399,17403,5335,Open Door Youth Reengagement Renton,2607 Jones Ave S,Renton,Washington,98055,47.456405,-122.197443,#11,WA9
400,13301,5336,Lake Roosevelt Alternative School,505 Crest Dr,Coulee Dam,Washington,99116,47.971858,-118.970915,#7,WA4
401,36140,5337,SE AREA TECHNICAL SKILLS CENTER,525 CAMPUS LOOP DR,WALLA WALLA,Washington,99362,46.080696,-118.279365,#16,WA5
402,27416,5338,White River Reengagement Program,PO Box 2050,Buckley,Washington,98321,47.152347,-122.079177,#31,WA8
403,32907,5339,PRIDE Prep School ,811 E. Sprague,Spokane,Washington,99202,47.657435,-117.398292,#3,WA5
404,37501,5340,Bellingham Re-Engagement Program,1306 Dupont St,Bellingham,Washington,98225,48.759265,-122.487019,#42,WA2
405,6037,5342,Open Doors Vancouver,PO BOX 8937,VANCOUVER,Washington,98668-8937,45.678996,-122.720499,#49,WA3
406,15201,5343,iGrad Academy,#1 Wildcat Way,Oak Harbor,Washington,98277,48.301305,-122.668458,#10,WA2
407,32081,5344,Open Doors Youth Re-Engagement Spokane,200 N. Bernard,Spokane,Washington,99201,47.659375,-117.415605,#3,WA5
408,11001,5345,Rosalind Franklin STEM Elementary,6010 Road 52,Pasco,Washington,99301,46.282749,-119.159383,#8,WA4
409,32361,5346,East Valley Middle School,4920 N Progress Rd,Spokane Valley,Washington,99216,47.702185,-117.201263,#4,WA5
410,17210,5348,Open Doors Youth Reengagement (1418),31455 28th Ave S,Federal Way,Washington,98003,47.319288,-122.298835,#30,WA9
411,31332,5349,Granite Falls Open Doors,205 N Alder Ave,Granite Falls,Washington,98252,48.084714,-121.963502,#39,WA8
412,31025,5350,Quil Ceda Tulalip Elementary,2415 74th St NE,Tulalip,Washington,98271,48.063993,-122.198592,#38,WA2
413,17001,5351,Jane Addams Middle School,11051 34th Ave. NE,Seattle,Washington,98125,47.709861,-122.292751,#46,WA7
414,39201,5352,SHS Graduation Alliance,1801 E Edison Ave,Sunnyside,Washington,98944,46.322527,-119.997409,#15,WA4
415,13161,5354,Endeavor Middle School ,6527 Patton Blvd,Moses Lake ,Washington,98837,47.182886,-119.321442,#13,WA4
416,39007,5355,Yakima Open Doors,1120 S 18th St,Yakima,Washington,98901,46.590177,-120.479448,#15,WA4
417,32363,5356,re-engagement ,2805 N Argonne,Spokane,Washington,99212,47.682571,-117.283472,#4,WA5
418,33070,5357,Valley Early Learning Center,3030 Huffman Road,Valley,Washington,99181,48.170476,-117.720174,#7,WA5
419,31015,5358,Edmonds Career Access Program,20420 68th Ave W,Lynnwood,Washington,98036,47.813572,-122.325776,#32,WA2
420,21401,5359,Futurus High School,906 Johnson Road,Centralia,Washington,98531,46.725264,-122.981719,#20,WA3
421,6119,5360,Open Doors Battle Ground,PO Box 200,Battle Ground,Washington,98604,45.803592,-122.531645,#20,WA3
422,32081,5361,Spokane Public Montessori,1300 West Knox Ave.,Spokane,Washington,99205,47.676297,-117.431902,#3,WA5
423,36250,5362,College Place High School,1755 S. College Avenue,College Place,Washington,99362,46.030884,-118.387588,#16,WA5
424,5402,5363,Forks Intermediate School,121 S Spartan Ave,Forks,Washington,98331,47.949634,-124.384412,#24,WA6
425,27400,5364,Meriwether Elementary School,10285 Compass Ave,JBLM Lewis North,Washington,98433,47.086536,-122.615841,#28,WA10
426,27400,5365,Rainier Elementary School,2410 Stryker Avenue,JBLM Lewis Main,Washington,98433,47.0699,-122.574908,#28,WA10
427,37501,5366,Bellingham Family Partnership Program,1409 18th St,Bellingham,Washington,98225-7201,48.718952,-122.494096,#40,WA2
428,1147,5367,Desert Oasis High School,825 E. Ash St.,Othello,Washington,99344,46.818533,-119.163036,#15,WA4
429,20405,5368,Wallace & Priscilla Stevenson Intermediate School,PO Box 2550,White Salmon,Washington,98672,45.828588,-121.405863,#14,WA4
430,21302,5369,Lewis County Alternative School,1265 SW Pacific Ave,Chehalis,Washington,98532,46.648997,-122.956826,#20,WA3
431,17401,5370,Highline Open Doors 1418,614 SW 120th Street,Burien,Washington,98146,47.496064,-122.342282,#34,WA7
432,17401,5371,Highline Home School Center,18367 8th Avenue South,Burien,Washington,98148,47.437847,-122.325001,#33,WA7
433,27403,5372,Acceleration Academy,16218 Pacific Ave,Spanaway,Washington,98387,47.109516,-122.434911,#29,WA10
434,37903,5373,Lummi Nation School,2334 Lummi View Drive,Bellingham,Washington,98226,48.728571,-122.654294,#42,WA2
435,17410,5374,SVSD OPEN DOORS,8001 SILVA AVE SE,SNOQUALMIE,Washington,98065,47.528626,-121.828438,#5,WA8
436,17902,5375,Summit Public School: Sierra,210 S Hudson St,Seattle,Washington,98134,47.557678,-122.331359,#34,WA7
437,27905,5376,Summit Public School: Olympus,210 S. Hudson St,Seattle,Washington,98134,47.557678,-122.331359,#34,WA7
438,17908,5380,Rainier Prep,10211 12th Ave S,Seattle,Washington,98168,47.511511,-122.318367,#34,WA7
439,32901,5381,Spokane International Academy,2706 E Queen,Spokane,Washington,99217,47.703985,-117.370505,#6,WA5
440,39119,5383,John Campbell Primary School,408 North First Street,Selah,Washington,98942,46.658601,-120.53104,#14,WA4
441,39119,5384,Selah Intermediate School,1401 West Fremont,Selah,Washington,98942,46.657154,-120.548327,#14,WA4
442,39119,5385,Selah Middle School,411 North First Street,Selah,Washington,98942,46.659856,-120.527762,#14,WA4
443,27400,5386,Clover Park Early Learning Program,10202 Earley Ave SW,Lakewood,Washington,98499,47.165503,-122.491887,#29,WA10
444,27400,5387,Four Heroes Elementary,9101 Lakewood Dr SW,Lakewood,Washington,98499,47.175098,-122.505378,#28,WA10
445,13160,5388,Royal Intermediate School,PO Box 486,Royal City,Washington,99357-0486,46.897589,-119.686316,#13,WA4
446,27001,5389,Birth to Three,511 Chambers Street,Steilacoom,Washington,98388,47.168803,-122.598559,#28,WA10
447,27416,5390,White River Homeschool,PO Box 2050,Buckley,Washington,98321,47.152347,-122.079177,#31,WA8
448,11001,5391,Barbara McClintock STEM Elementary,5706 Road 60,Pasco,Washington,99301,46.279166,-119.169742,#8,WA4
449,11001,5392,Captain Gray STEM Elementary,1102 N 10th Ave,Pasco,Washington,99301,46.24014,-119.103632,#15,WA4
450,11001,5393,Internet Pasco Academy of Learning,2803 N Road 88,Pasco,Washington,99301,46.25395,-119.206149,#8,WA4
451,11001,5394,Marie Curie STEM Elementary,715 N California,Pasco,Washington,99301,46.240479,-119.079669,#15,WA4
452,18100,5395,Career & Academic Re-engagement Center,134 Marion Ave N,Bremerton,Washington,98312,47.564393,-122.662272,#26,WA6
453,32360,5396,Cheney Open Doors,460 N. 6th St.,Cheney,Washington,99004,47.497986,-117.576915,#9,WA5
454,6801,5398,ESD 112 Open Doors Reengagement,2500 NE 65th Avenue,Vancouver,Washington,98661,45.638608,-122.60596,#49,WA3
455,39200,5399,Step Up to College Open Doors High School,913 W 2nd ST,Grandview,Washington,98930,46.255286,-119.9151,#15,WA4
456,8122,5400,Discovery High School-Achieve,2742 Harding,Longview,Washington,98632,46.139144,-122.956419,#19,WA3
457,32354,5401,Mead Open Doors,2323 E Farwell Rd,Mead,Washington,99021,47.773277,-117.37573,#6,WA5
458,31025,5402,Marysville NWESD 189 Youth Engagement,1605  7th Street ,Marysville,Washington,98270,48.055068,-122.174603,#38,WA1
459,11801,5403,Ugrad  ESD123 Re-Engagement Program,3918 West Court Street,Pasco ,Washington,99301,46.241216,-119.142651,#8,WA4
460,17001,5405,Interagency Open Doors,3528 S. Ferdinand Street,Seattle,Washington,98118,47.558179,-122.287116,#37,WA9
461,17001,5406,Bridges Transition,7201 Beacon Ave S,Seattle,Washington,98108,47.538091,-122.295913,#37,WA9
462,8404,5409,Woodland Middle School,755 Park St,Woodland,Washington,98674,45.90335,-122.748177,#20,WA3
463,27001,5410,Futures Program,511 Chambers Street,Steilacoom,Washington,98388,47.168803,-122.598559,#28,WA10
464,27400,5411,CPSD Open Doors Program,11023 Gravelly Lake Dr SW,Lakewood,Washington,98499,47.15761,-122.51912,#28,WA10
465,15204,5412,Open Den,501 South Main,Coupeville,Washington,98239,48.207557,-122.685968,#10,WA2
466,16049,5397,Open Doors Reengagement Program,PO Box 278,Chimacum,Washington,98325,48.01092,-122.76878,#24,WA6
467,2250,5413,Educational Opportunity Center Reengagement,1284 Chestnut,Clarkston,Washington,99403,46.411019,-117.057521,#9,WA5
468,31002,5414,Other Schools,PO Box 2098,Everett,Washington,98213-2999,47.988661,-122.199795,#38,WA2
469,21206,5415,Mossyrock Academy,P O Box 478,Mossyrock,Washington,98564,46.50281,-122.468293,#20,WA3
470,14068,5416,East Grays Harbor Open Doors,705 W Waldrip,Elma,Washington,98541,47.002564,-123.408515,#24,WA6
471,32325,5417,Re-Engagement School (Nine Mile Falls),5909 Highway 291,Nine Mile Falls,Washington,99026,47.811264,-117.56138,#7,WA5
472,4228,5418,Cascade Home-Link,330 Evans Street,Leavenworth,Washington,98826,47.597761,-120.663778,#12,WA8
473,3400,5419,Orchard Elementary,1600 Gala Way,Richland,Washington,99352,46.233709,-119.288797,#8,WA4
474,5903,5430,Quileute Tribal School,PO Box 39,La Push,Washington,98350,47.905203,-124.62608,#24,WA6
475,27931,5431,Bates Technical College - Open Doors,1101 South Yakima Ave.,Tacoma,Washington,98405,47.252605,-122.447379,#27,WA6
476,32361,5432,EV Online,3830 N Sullivan Rd Bldg 1,Spokane Valley,Washington,99216,47.692138,-117.195387,#4,WA5
477,32361,5433,EV Parent Partnership,12325 E Grace Ave,Spokane Valley,Washington,99216,47.684762,-117.238489,#4,WA5
478,32801,5434,NEWESD 101 Open Doors,901 E. 2nd Avenue Suite 100,Spokane,Washington,99202,47.654969,-117.396537,#3,WA5
479,6114,5435,Open Doors Evergreen,2205 NE 138th Ave,Vancouver,Washington,98682,45.638739,-122.529383,#17,WA3
480,27402,5436,Early Learning Center,12223 S A Street,Tacoma,Washington,98444,47.145627,-122.431209,#29,WA10
481,17411,5437,Gibson Ek High School,379 1st PL SE,Issaquah,Washington,98027,47.526643,-122.034192,#5,WA8
482,3017,5438,Sage Crest Elementary,6411 W 38th Ave,Kennewick,Washington,99338,46.175116,-119.208196,#8,WA4
483,3017,5439,Chinook Middle School,6011 W 10th Place,Kennewick,Washington,99338,46.198459,-119.205692,#8,WA4
484,17415,5440,The Outreach Program,26024 111th Ave SE,Kent,Washington,98030-6289,47.368055,-122.192589,#47,WA9
485,31004,5441,Early Learning Center,9215 29th St NE,Lake Stevens,Washington,98258,48.023807,-122.107406,#39,WA1
486,31004,5442,Outcomes for Academic Resilience,2202 123rd Ave NE,Lake Stevens,Washington,98258,48.017902,-122.065358,#39,WA1
487,39120,5443,Mabton Step Up To College,500 W B St,Mabton,Washington,98935,46.213419,-119.995307,#14,WA4
488,23311,5444,Mary M. Knight School,2987 W Matlock Brady RD,Elma,Washington,98541,47.19934,-123.432433,#35,WA6
489,23311,5445,Washington Connections Academy,111 Tumwater Blvd SE,Tumwater,Washington,98501,46.983202,-122.904542,#22,WA10
490,33207,5446,Mary Walker Alternative Learning Experience,PO Box 159,Springdale,Washington,99173,48.002188,-117.828964,#7,WA5
491,17400,5447,Northwood Elementary School,4030 86th Ave SE,Mercer Island,Washington,98040,47.573724,-122.223238,#41,WA9
492,29320,5449,Mount Vernon Open Doors,2001 Cleveland Ave,Mount Vernon,Washington,98273,48.406401,-122.339118,#10,WA2
493,31006,5450,Lake Stickney Elementary School,1625 Madison Way,Lynnwood,Washington,98087,47.870373,-122.255562,#21,WA2
494,39003,5451,Naches Valley Elementary School,151 Bonlow Drive,Naches,Washington,98937,46.720016,-120.679087,#13,WA4
495,34003,5452,Salish Middle School,8605 Campus Glen Dr NE,Lacey,Washington,98516,47.081075,-122.757386,#22,WA10
496,25101,5454,Ocean Beach Alternative School,PO Box 778,LONG BEACH,Washington,98631,46.35232,-124.054331,#19,WA3
497,29101,5456,Connections Academy,24828 Turning Point Court,Sedro-Woolley,Washington,98284,48.486147,-122.137243,#39,WA2
498,17410,5457,Timber Ridge Elementary School,34412 SE SWENSON DR,SNOQUALMIE,Washington,98065,47.525109,-121.881505,#5,WA8
499,27010,5458,Industrial Design Engineering and Art,6701 S Park Ave,Tacoma,Washington,98444,47.196105,-122.441478,#29,WA10
500,27010,5459,Hoyt Early Learning Center,2708 N Union Avenue,Tacoma,Washington,98407,47.272724,-122.484664,#27,WA6
501,36140,5460,Walla Walla Open Doors,1917 E Isaacs Ave,Walla Walla,Washington,99362,46.075233,-118.30759,#16,WA5
502,33049,5461,Wellpinit Fort Simcoe SEA,PO Box 390,Wellpinit,Washington,99040,47.881367,-117.933742,#7,WA5
503,32363,5462,West Valley Early Learning Center,2523 N Park Rd,Spokane Valley,Washington,99212,47.680046,-117.305767,#4,WA5
504,21401,5463,Early Learning Center,PO BOX 610,Centralia,Washington,98531,46.713822,-123.01046,#20,WA3
505,37502,5464,FERNDALE RE-ENGAGEMENT,6041 VISTA DRIVE,FERNDALE,Washington,98248,48.860034,-122.600588,#42,WA2
506,37503,5465,Blaine Re-Engagement,Blaine School District,Blaine,Washington,98230,48.937678,-122.726364,#42,WA2
507,37504,5466,IMPACT Reengagement Program,1201 Bradley Rd,Lynden,Washington,98264,48.952154,-122.428328,#42,WA2
508,6701,5467,ESA 112 Special Ed Co-Op,2500 NE 65th Avenue,Vancouver,Washington,98661,45.638608,-122.60596,#49,WA3
509,17910,5468,Rainier Valley Leadership Academy,6020 Rainier Avenue S,Seattle,Washington,98118,47.547665,-122.276483,#37,WA9
510,17905,5469,Summit Public School: Atlas,9601 35th Avenue SW,Seattle,Washington,98126,47.517085,-122.377974,#34,WA7
511,36901,5470,Willow Public School,PO Box 814,Walla Walla,Washington,99362,46.1341,-118.291407,#16,WA5
512,27403,5471,Bethel Elementary Learning Academy,16117 Canyon Road East,Puyallup,Washington,98375,47.108926,-122.356758,#25,WA10
513,18401,5472,Barker Creek Community School,PO Box 8,Silverdale,Washington,98383,47.690048,-122.712678,#23,WA6
514,17210,5473,TAFA at Saghalie,33914 19th Ave SW,Federal Way,Washington,98023,47.297574,-122.354996,#30,WA9
515,37502,5474,Ferndale Family Connections,6041 Vista Dr,Ferndale,Washington,98248,48.860034,-122.600588,#42,WA2
516,31004,5477,Stevens Creek Elementary,9317 29th St NE,Lake Stevens,Washington,98258,48.024085,-122.105919,#39,WA1
517,31025,5478,Marysville Getchell High School,8301 84th St. NE,Marysville,Washington,98270,48.074871,-122.120274,#39,WA1
518,30031,5480,Pacific Crest Innovation Academy,1142 Jessup rd,cook,Washington,98605,45.757327,-121.648951,#17,WA3
519,17417,5481,North Creek High School,3613 191st PL SE,Bothell,Washington,98012,47.823806,-122.183805,#44,WA1
520,31006,5482,Pathfinder Kindergarten Center,11401 Beverly Park Road,Everett,Washington,98204,47.894562,-122.268111,#21,WA2
521,11001,5483,Pasco Early Learning Center,1315 N 7th Ave,Pasco,Washington,99301,46.239801,-119.099007,#15,WA4
522,17403,5484,Risdon Middle School,6928 116th Ave SE,Newcastle,Washington,98056,47.540924,-122.184479,#41,WA9
523,17001,5485,Meany Middle School,301 21st Ave E,Seattle,Washington,98112-5318,47.621597,-122.305302,#43,WA7
524,17001,5486,Robert Eagle Staff Middle School,1330 N 90th St,Seattle,Washington,98103-4016,47.694942,-122.340884,#46,WA7
525,17001,5487,Cedar Park Elementary School,13224 37th Ave NE,Seattle,Washington,98125-4649,47.724534,-122.288474,#46,WA7
526,17001,5488,Decatur Elementary School,7711 43rd Ave NE   ,Seattle,Washington,98115,47.685573,-122.282824,#46,WA7
527,17409,5489,Cedar River Elementary,22615 Sweeney Rd SE,Maple Valley,Washington,98038,47.39828,-122.05155,#47,WA8
528,17409,5490,Tahoma Elementary,24425 SE 216th ST,Maple Valley,Washington,98038,47.407609,-122.015119,#5,WA8
529,3400,5493,Leona Libby Middle School,3259 Belmont Blvd.,West Richland,Washington,99353,46.315267,-119.371393,#16,WA4
530,6112,5494,Columbia River Gorge Elementary School,35300 SE Evergreen Hwy,Washougal,Washington,98671-6736,45.576133,-122.310313,#17,WA3
531,31016,5495,Arlington Open Doors,4407 172nd ST NE,Arlington,Washington,98223,48.153062,-122.170034,#10,WA1
532,34901,5496,Wa He Lut Indian School,11110 Conine Ave SE,Olympia,Washington,98513,47.067673,-122.703074,#2,WA10
533,13165,5497,Sage Hills Open Doors,333 4TH AVE NW,Ephrata,Washington,98823,47.325325,-119.550593,#13,WA4
534,31006,5498,Mukilteo Reengagement Academy Open Doors,9401 Sharon Drive,Everett,Washington,98204,47.91293,-122.244734,#38,WA2
535,11051,5499,CRCC-Open Doors,PO Box 829,Connell,Washington,99326,46.590118,-118.897786,#9,WA5
536,29801,5501,Open Doors - Youth Reengagement Program,1601 R Avenue,Anacortes,Washington,982212276,48.510602,-122.608771,#40,WA2
537,6119,5502,Daybreak Youth Services,11104 NE 149th St,Brush Prairie,Washington,98606,45.731557,-122.560436,#18,WA3
538,17216,5491,JJ Smith Elementary,1640 Fell Street,Enumclaw,Washington,98022,47.206642,-121.993784,#31,WA8
539,39208,5504,WEST VALLEY VIRTUAL ACADEMY K-6,9800 Zier Rd,Yakima ,Washington,98908,46.57369,-120.638891,#14,WA4
540,39208,5505,WEST VALLEY VIRTUAL ACADEMY 7-8,9800 Zier Rd,Yakima,Washington,98908,46.57369,-120.638891,#14,WA4
541,39208,5506,WEST VALLEY VIRTUAL ACADEMY 9-12,9800 Zier Rd,Yakima,Washington,98908,46.57369,-120.638891,#14,WA4
542,32356,5507,Liberty Creek Elementary School,2309 E Country Vista Drive,Liberty Lake,Washington,99019,47.664991,-117.119096,#4,WA5
543,17405,5508,Wilburton Elementary School,12300 Main Street,Bellevue,Washington,98005,47.610737,-122.176257,#48,WA9
544,21302,5509,James W Lintott Elementary School,1220 Bishop Rd,Chehalis,Washington,98532,46.641104,-122.949294,#20,WA3
545,6114,3149,Sifton Elementary School,7301 NE 137th Avenue,Vancouver,Washington,98682-4608,45.675465,-122.530042,#18,WA3
546,6114,3320,Covington Middle School,11200 NE Rosewood Rd,Vancouver,Washington,98662-5447,45.668922,-122.560699,#18,WA3
547,6114,3618,Marrion Elementary School,10119 NE 14th Street,Vancouver,Washington,98664-3003,45.630961,-122.569869,#49,WA3
548,6114,3736,Burton Elementary School,14015 NE 28th Street,Vancouver,Washington,98682-8172,45.641604,-122.527428,#17,WA3
549,6114,3785,Cascade Middle School,13900 NE 18th Street,Vancouver,Washington,98684-7215,45.637101,-122.528795,#17,WA3
550,6114,3822,Crestline Elementary School,13003 S E 7th Street,Vancouver,Washington,98683,45.615123,-122.539139,#17,WA3
551,6114,3823,Silver Star Elementary School,10500 NE 86th Street,Vancouver,Washington,98662-2167,45.685234,-122.565182,#18,WA3
552,6114,3970,Sunset Elementary School,9001 NE 95th Street,Vancouver,Washington,98662-2036,45.689479,-122.58231,#18,WA3
553,6114,3971,Fircrest Elementary School,12001 NE Ninth Street,Vancouver,Washington,98684-4937,45.627162,-122.549554,#49,WA3
554,6114,3994,Image Elementary School,4400 NE 122nd Avenue,Vancouver,Washington,98682-6836,45.653272,-122.548847,#49,WA3
555,6114,3995,Riverview Elementary School,12601 SE Riverridge Drive,Vancouver,Washington,98684-6466,45.606052,-122.54094,#17,WA3
556,6114,4042,Legacy High School,2205 E 138th Avenue,Vancouver,Washington,98684-7228,45.638739,-122.529383,#17,WA3
557,6114,4051,Wyeast Middle School,1112 SE 136th Avenue,Vancouver,Washington,98683-7014,45.612522,-122.534537,#17,WA3
558,6114,4162,Mountain View High School,1500 SE Blairmont Dr,Vancouver,Washington,98683-8331,45.612042,-122.519084,#17,WA3
559,6114,4163,Hearthwood Elementary School,801 NE Hearthwood Blvd,Vancouver,Washington,98684-7407,45.627226,-122.525373,#49,WA3
560,6114,4203,Cascadia Technical Academy Skills Center,12200 NE 28th Street,Vancouver,Washington,98682-7858,45.644151,-122.546865,#49,WA3
561,6114,4209,Pacific Middle School,2017 NE 172nd Avenue,Vancouver,Washington,98684-9749,45.638427,-122.493465,#17,WA3
562,6114,4299,Burnt Bridge Creek Elementary Sch,14619A NE 49th Street,Vancouver,Washington,98682-6308,45.65646,-122.522713,#49,WA3
563,6114,4380,Harmony Elementary School,17404A NE 18th Street,Vancouver,Washington,98684-9770,45.636686,-122.493378,#17,WA3
564,6114,4445,Pioneer Elementary School,7212 NE 166th Avenue,Vancouver,Washington,98682-5196,45.677677,-122.499188,#17,WA3
565,6114,4498,Frontier Middle School,7600 NE 166th Avenue,Vancouver,Washington,98682-3100,45.677677,-122.499188,#17,WA3
566,6114,4499,Fishers Landing Elementary School,3800 SE Hiddenbrook Drive,Vancouver,Washington,98683-8274,45.595324,-122.488306,#17,WA3
567,6114,4523,Heritage High School,7825 NE 130th Avenue,Vancouver,Washington,98682-3316,45.680299,-122.536439,#18,WA3
568,6114,4560,Illahee Elementary School,19401 SE 1st Street,Camas,Washington,98607-7275,45.618648,-122.472759,#17,WA3
569,6114,4561,Shahala Middle School,601 SE 192nd Avenue,Vancouver,Washington,98683-9508,45.618648,-122.472759,#17,WA3
570,6117,2725,Helen Baller Elem,1954 NE Garfield Street,Camas,Washington,98607-1143,45.594039,-122.402603,#17,WA3
571,6117,3474,Lacamas Lake Elementary,4825 North Shore Blvd,Camas,Washington,98607,45.630757,-122.431984,#17,WA3
572,6117,4182,Dorothy Fox,2623 NW Sierra St,Camas,Washington,98607-9397,45.598853,-122.429825,#17,WA3
573,6117,4508,Skyridge Middle School,5220 NW Parker Street,Camas,Washington,98607-8576,45.616087,-122.446837,#17,WA3
574,6117,4563,Prune Hill Elem,1601 NW Tidland St,Camas,Washington,98607-9405,45.590016,-122.455919,#17,WA3
575,6117,4567,Camas High School,26900 SE 15TH ST,Camas,Washington,98607-7296,45.612573,-122.39661,#17,WA3
576,6119,1836,CAM Academy,PO Box 200,BATTLE GROUND,Washington,98604-0200,45.803592,-122.531645,#20,WA3
577,6119,1875,Homelink River,PO Box 200,Battle Ground,Washington,98604-0200,45.803592,-122.531645,#20,WA3
578,6119,2415,Battle Ground High School,PO Box 200,BATTLE GROUND,Washington,98604-0200,45.803592,-122.531645,#20,WA3
579,6119,2671,Amboy Middle School,PO Box 200,Battle Ground,Washington,98604-0200,45.803592,-122.531645,#20,WA3
580,6119,2910,Yacolt Primary,406 W YACOLT RD,YACOLT,Washington,98675-0000,45.868139,-122.412053,#20,WA3
581,6119,3018,Glenwood Heights Primary,9716 NE 134th St,Vancouver,Washington,98662-0000,45.721126,-122.570385,#18,WA3
582,6119,3545,Laurin Middle School,PO Box 200,Battle Ground,Washington,98604,45.803592,-122.531645,#20,WA3
583,6119,3996,Pleasant Valley Primary,PO Box 200,Battle Ground,Washington,98604-0200,45.803592,-122.531645,#20,WA3
584,6119,3997,Pleasant Valley Middle,14320 NE 50TH AVE,VANCOUVER,Washington,98686-0000,45.726712,-122.623188,#18,WA3
585,6119,4104,Prairie High School,PO Box 200,Battle Ground,Washington,98604-0200,45.803592,-122.531645,#20,WA3
586,6119,4108,Preschool Infant Other,PO Box 200,Battle Ground,Washington,98604-0200,45.803592,-122.531645,#20,WA3
587,6119,4144,Maple Grove Primary,PO Box 200,BATTLE GROUND,Washington,98604-0200,45.803592,-122.531645,#20,WA3
588,6119,4352,Captain Strong,PO Box 200,BATTLE GROUND,Washington,98604-0200,45.803592,-122.531645,#20,WA3
589,6119,4450,Summit View High School,PO Box 200,Battle Ground,Washington,98604-0200,45.803592,-122.531645,#20,WA3
590,6122,2390,Ridgefield High School,2630 S HILLHURST ROAD,RIDGEFIELD,Washington,98642-9089,45.798657,-122.714501,#20,WA3
591,6122,3321,South Ridge Elementary,502 NW 199TH STREET,RIDGEFIELD,Washington,98642-5601,45.766124,-122.674283,#20,WA3
592,6122,3786,Union Ridge Elementary,330 N FIFTH AVE,RIDGEFIELD,Washington,98642-9274,45.818124,-122.741234,#20,WA3
593,6122,3891,View Ridge Middle School,3215 S Hillhurst Rd,RIDGEFIELD,Washington,98642-8571,45.791839,-122.710386,#20,WA3
594,7002,2302,Dayton High School,614 S Third Street,Dayton,Washington,99328-1599,46.31702,-117.973986,#9,WA5
595,7002,2830,Dayton Elementary School,302 E Park,Dayton,Washington,99328-1596,46.317189,-117.976105,#9,WA5
596,7002,4011,Dayton Middle School,609 S Second Street,Dayton,Washington,99328-1572,46.316186,-117.974922,#9,WA5
597,7035,2135,Starbuck School,717 TUCANNON ST,STARBUCK,Washington,99359-0188,46.518019,-118.122658,#9,WA5
598,8122,2319,Kessler Elementary School,1902 E Kessler Blvd.,Longview,Washington,98632-1844,46.131431,-122.944916,#19,WA3
599,8122,2369,Columbia Valley Garden Elem Schl,2644 30th Avenue,Longview,Washington,98632-4367,46.154358,-122.957424,#19,WA3
600,8122,2370,Saint Helens Elementary,431 27th Avenue,Longview,Washington,98632-1329,46.128405,-122.959927,#19,WA3
601,8122,2416,R A Long High School,2903 Nichols Blvd.,Longview,Washington,98632-2704,46.14048,-122.955829,#19,WA3
602,8122,2665,Broadway Learning Center,1410 8th Avenue,Longview,Washington,98632-3807,46.137591,-122.926758,#19,WA3
603,8122,2726,Olympic Elementary School,1324 30th Avenue,Longview,Washington,98632-2799,46.139246,-122.961825,#19,WA3
604,8122,2831,Monticello Middle School,1225 28th Avenue,Longview,Washington,98632-2768,46.138308,-122.957841,#19,WA3
605,8122,2914,Northlake Elementary School,2210 Olympia Way,Longview,Washington,98632-4505,46.145249,-122.94363,#19,WA3
606,8122,3019,Robert Gray Elementary,4622 Ohio Street,Longview,Washington,98632-5199,46.171424,-122.992565,#19,WA3
607,8122,3151,Mark Morris High School,1602 Mark Morris Court,Longview,Washington,98632-3926,46.144396,-122.936885,#19,WA3
608,8122,3211,Columbia Heights Elementary,2820 Parkview Drive,Longview,Washington,98632-5502,46.156123,-122.938975,#19,WA3
609,8122,3475,Cascade Middle School,2821 Parkview Drive,Longview,Washington,98632-5501,46.155453,-122.942481,#19,WA3
610,8122,3658,Mint Valley Elementary,2745 38th Avenue,Longview,Washington,98632-4721,46.165645,-122.973849,#19,WA3
611,8122,3913,Longview School District Special Services,1600 3rd Avenue,Longview,Washington,98632-3231,46.139184,-122.919385,#19,WA3
612,8130,2560,Toutle Lake High School,5050 Spirit Lake Hwy,Toutle,Washington,98649-9701,46.323603,-122.740448,#20,WA3
613,8130,4264,Toutle Lake Elementary,5050 Spirit Lake Hwy,Toutle,Washington,98649-9701,46.323603,-122.740448,#20,WA3
614,8401,2281,Castle Rock High School,5180 WESTSIDE HWY,CASTLE ROCK,Washington,98611-0000,46.281608,-122.919845,#19,WA3
615,8401,2762,Castle Rock Elementary,700 HUNTINGTON AVE S,CASTLE ROCK,Washington,98611-0000,46.270834,-122.905372,#19,WA3
616,8401,3969,Castle Rock Middle School,615 FRONT AVE SW,CASTLE ROCK,Washington,98611-0000,46.271774,-122.907678,#19,WA3
617,8402,2561,Kalama Middle School,548 China Garden Road,Kalama,Washington,98625-0000,46.008029,-122.838264,#20,WA3
618,8402,2915,Kalama Elem School,548 China Garden Road,Kalama,Washington,98625-0000,46.008029,-122.838264,#20,WA3
619,8404,1795,TEAM High School,759 3rd Street,Woodland,Washington,98674,45.903594,-122.75084,#20,WA3
620,8404,3513,Yale Elementary,11842 Lewis River Road,Ariel,Washington,98603-9743,45.995957,-122.3806,#20,WA3
621,8404,3546,Woodland High School,1500 Dike Access Road,Woodland,Washington,98674,45.929261,-122.765218,#20,WA3
622,8458,2266,Kelso High School,1904 Allen St,Kelso,Washington,98626-0000,46.143284,-122.892241,#19,WA3
623,8458,2596,Rose Valley Elementary,1502 Rose Valley Rd,Kelso,Washington,98626-0000,46.098295,-122.826548,#20,WA3
624,8458,2624,Wallace Elementary,410 Elm St,Kelso,Washington,98626-0000,46.134533,-122.912435,#19,WA3
625,8458,2691,Catlin Elementary,404 Long Ave.,Kelso,Washington,98626,46.149001,-122.917858,#19,WA3
626,8458,2913,Carrolls Elementary,PO Box 3,Carrolls,Washington,98609-0000,46.071482,-122.864838,#20,WA3
627,8458,2916,Huntington Middle School,500 Redpath,Kelso,Washington,98626-0000,46.15374,-122.904125,#19,WA3
628,8458,3082,Butler Acres Elementary,1609 Burcham St,Kelso,Washington,98626-0000,46.151395,-122.894684,#19,WA3
629,6801,3294,Cowlitz County Youth Services Center,1725 1ST AVE,Longview,Washington,98632-3274,46.140578,-122.919804,#19,WA3
630,8458,3322,Coweeman Middle School,2000 Allen St,Kelso,Washington,98626-0000,46.143794,-122.888654,#19,WA3
631,8458,3323,Barnes Elementary,401 Barnes,Kelso,Washington,98626-0000,46.159696,-122.908475,#19,WA3
632,8458,3578,Beacon Hill Elementary,257 Alpha Dr,Longview,Washington,98632-0000,46.18014,-122.926015,#19,WA3
633,9013,2666,Orondo Elementary and Middle School,100 ORONDO SCHOOL ROAD,ORONDO,Washington,98843-9723,47.64096,-120.216469,#7,WA4
634,9075,2562,Bridgeport Elementary,P.O. Box 1060,Bridgeport,Washington,98813-1060,48.0082,-119.67116,#7,WA4
635,9075,2788,Bridgeport High School,BOX 1060,BRIDGEPORT,Washington,98813-0000,48.0082,-119.67116,#7,WA4
636,9075,4213,Bridgeport Middle School,PO Box 1060,Bridgeport,Washington,98813,48.0082,-119.67116,#7,WA4
637,9102,2502,Palisades Elementary School,1114 Palisades Rd,Palisades,Washington,98845-9606,47.416414,-119.916126,#7,WA4
638,9206,2563,Rock Island Elementary,5645 Rock Island Road,Rock Island,Washington,98850-9528,47.377652,-120.154943,#7,WA4
639,9206,2727,Eastmont Senior High,955 3rd Street NE,East Wenatchee,Washington,98802-4999,47.41095,-120.272947,#12,WA4
640,9206,2966,Grant Elementary School,1430 SE 1st Street,East Wenatchee,Washington,98802-5599,47.403565,-120.264014,#7,WA4
641,9206,2986,Canyon View Group Home,260 N. Georgia,East Wenatchee,Washington,98802-4999,47.408793,-120.277712,#7,WA4
642,9206,3083,Lee Elementary,1455 N. Baker Ave.,East Wenatchee,Washington,98802-4336,47.427261,-120.291369,#12,WA4
643,9206,3212,Kenroy Elementary,601 N. Jonathan Ave.,East Wenatchee,Washington,98802-6099,47.414081,-120.2649,#12,WA4
644,9206,3372,Eastmont Junior High,905 NE 8th Street,East Wenatchee,Washington,98802-4498,47.418132,-120.273264,#12,WA4
645,9206,3659,Cascade Elementary,2330 N. Baker Ave.,East Wenatchee,Washington,98802-4019,47.44383,-120.293234,#7,WA4
646,9206,4095,Sterling School,600 N. James Ave.,East Wenatchee,Washington,98802-4699,47.414355,-120.270112,#12,WA4
647,4246,4105,Wenatchee Valley Technical Skills Center,327 E PENNY ROAD STE D,WENATCHEE,Washington,98801-8106,47.465544,-120.329169,#12,WA8
648,9207,2233,Mansfield Elem and High School,P.O. BOX 188,MANSFIELD,Washington,98830-0000,47.847735,-119.525987,#7,WA4
649,9209,2161,Waterville Elementary,PO Box 490,Waterville,Washington,98858-0490,47.701979,-119.86123,#7,WA4
650,9209,2162,Waterville High School,PO Box 490,Waterville,Washington,98858-0490,47.701979,-119.86123,#7,WA4
651,10003,2602,Keller Elementary School,P.O. Box 367,KELLER,Washington,99140-0367,48.07877,-118.68501,#7,WA5
652,10050,2006,Curlew Elem & High School,PO Box 370,Curlew,Washington,99118-0370,48.894734,-118.669864,#7,WA5
653,10065,2136,Orient Elementary School,374 4th Avenue,ORIENT,Washington,99160-0000,48.868041,-118.20519,#7,WA5
654,10070,2603,Inchelium High School,1 Hornet Avenue,Inchelium,Washington,99138-0000,48.301438,-118.200839,#7,WA5
655,10070,4214,Inchelium Middle School,1 Hornet Avenue,Inchelium,Washington,99138-0000,48.301438,-118.200839,#7,WA5
656,10070,4215,Inchelium Elementary School,2 Hornet Avenue,Inchelium,Washington,99138-0000,48.301277,-118.198598,#7,WA5
657,10309,2789,Republic Elementary School,30306 E HIGHWAY 20,REPUBLIC,Washington,99166,48.642139,-118.726349,#7,WA5
658,10309,3579,Republic Senior High School,30306 HIGHWAY 20 E,REPUBLIC,Washington,99166-0000,48.642139,-118.726349,#7,WA5
659,11001,2267,Mcloughlin Middle School,2803 N ROAD 88,PASCO,Washington,99301-1691,46.25395,-119.206149,#8,WA4
660,11001,2790,Longfellow Elementary,301 NORTH 10TH AVENUE,PASCO,Washington,99301-0000,46.23103,-119.101604,#15,WA4
661,11001,2917,Pasco Senior High School,1108 N 10TH AVENUE,PASCO,Washington,99301-0000,46.238567,-119.103143,#15,WA4
662,11001,2967,Emerson Elementary,1616 W OCTAVE ST,PASCO,Washington,99301-0000,46.237629,-119.110718,#15,WA4
663,11001,3085,Mark Twain Elementary,1801 N ROAD 40,PASCO,Washington,99301-2699,46.244114,-119.143397,#8,WA4
664,11001,3324,Stevens Middle School,1120 N 22ND AVENUE,PASCO,Washington,99301-0000,46.238965,-119.120806,#15,WA4
665,11001,3425,Edwin Markham Elementary,4031 ELM ROAD,PASCO,Washington,99301-0000,46.430231,-119.197775,#15,WA5
666,11001,3515,Robert Frost Elementary,1915 NORTH 22ND AVENUE,PASCO,Washington,99301-0000,46.247278,-119.118947,#8,WA4
667,11001,3912,New Horizons High School,2020 W ARGENT RD,PASCO,Washington,99301-0000,46.254404,-119.118117,#15,WA4
668,11001,4041,Ruth Livingston Elementary,2515 ROAD 84,PASCO,Washington,99301-0000,46.251591,-119.200193,#8,WA4
669,11001,4155,James McGee Elementary,4601 N HORIZON DRIVE,PASCO,Washington,99301-9429,46.268118,-119.142178,#8,WA4
670,11001,4526,Whittier Elementary,616 N WEHE AVENUE,PASCO,Washington,99301-0000,46.239794,-119.07671,#15,WA4
671,11001,4555,Rowena Chess Elementary,715 N 24TH AVE,PASCO,Washington,99301-0000,46.235501,-119.121734,#15,WA4
672,11001,4564,Ellen Ochoa Middle School,1801 E SHEPPARD ST,PASCO,Washington,99301-3584,46.24556,-119.073039,#15,WA4
673,11051,1754,Palouse Junction High School,PO Box 829,Connell,Washington,99326-0829,46.590118,-118.897786,#9,WA5
674,11051,1889,Connell Preschool,PO Box 829,Connell,Washington,99326-0829,46.590118,-118.897786,#9,WA5
675,11051,2198,Robert L Olds Junior High School,PO Box 829,Connell,Washington,99326-0829,46.590118,-118.897786,#9,WA5
676,11051,2918,Connell Elem,PO Box 829,Connell,Washington,99326-0829,46.590118,-118.897786,#9,WA5
677,11051,3086,Mesa Elem,PO Box 327,Mesa,Washington,99343,46.577941,-119.162115,#15,WA5
678,11051,3272,Connell High School,PO Box 829,Connell,Washington,99326-0829,46.590118,-118.897786,#9,WA5
679,11051,3325,Basin City Elem,PO Box 829,Connell,Washington,99326-0829,46.590118,-118.897786,#9,WA5
680,11054,2007,Star Elem School,P. O. Box 1482,Richland,Washington,99352-1482,46.28569,-119.28446,#8,WA4
681,11056,3214,Kahlotus Elem & High,PO BOX 69,KAHLOTUS,Washington,99335-0069,46.677852,-118.53374,#9,WA5
682,12110,2241,Pomeroy Jr Sr High School,P.O. Box 950,Pomeroy,Washington,99347-0950,46.475341,-117.537763,#9,WA5
683,12110,3087,Pomeroy Elementary School,P.O. Box 950,Pomeroy,Washington,99347-0950,46.475341,-117.537763,#9,WA5
684,13073,1835,Sentinel Tech Alt School,P.O. Box 907,Mattawa,Washington,99349-0000,46.730957,-119.778257,#15,WA4
685,13073,3152,Mattawa Elementary,P.O. Box 907,Mattawa,Washington,99349-0000,46.730957,-119.778257,#15,WA4
686,13073,4222,Morris Schott Elementary,P.O. Box 907,Mattawa,Washington,99349-0000,46.730957,-119.778257,#15,WA4
687,13073,4254,Wahluke High School,P.O. Box 907,Mattawa,Washington,99349-0000,46.730957,-119.778257,#15,WA4
688,13073,4490,Saddle Mountain Elementary,P.O. Box 907,Mattawa,Washington,99349-0000,46.730957,-119.778257,#15,WA4
689,13144,2510,Quincy Middle School,417 C ST SE,QUINCY,Washington,98848-0000,47.23552,-119.845362,#13,WA4
690,13144,2919,Pioneer Elementary,224 J STREET S.E.,QUINCY,Washington,98848-0000,47.230245,-119.848842,#13,WA4
691,13144,3020,Mountain View Elementary,119 D ST NW,QUINCY,Washington,98848-0000,47.241463,-119.856431,#13,WA4
692,13144,3088,Quincy High School,16 6th AVE SE,QUINCY,Washington,98848-0000,47.236592,-119.840638,#13,WA4
693,13144,3426,George Elementary,401 S. WASHINGTON WAY,QUINCY,Washington,98848-0000,47.075963,-119.856565,#13,WA4
694,13144,4536,Monument Elementary,1400 13th Avenue SW,QUINCY,Washington,98848-0000,47.225711,-119.874414,#13,WA4
695,13146,2792,Warden Elementary,101 W BECK WAY,WARDEN,Washington,98857-9401,46.962507,-119.040649,#13,WA4
696,13146,3273,Warden High School,101 W BECK WAY,WARDEN,Washington,98857-9401,46.962507,-119.040649,#13,WA4
697,13146,3909,Warden Middle School,101 W BECK WAY,WARDEN,Washington,98857-9401,46.962507,-119.040649,#13,WA4
698,13151,2304,Coulee City MS,410 W. Locust St.,COULEE CITY,Washington,99115-0428,47.613129,-119.290765,#7,WA4
699,13151,2693,Coulee City Elementary,410 W LOCUST,COULEE CITY,Washington,99115-0000,47.613129,-119.290765,#7,WA4
700,13151,2968,Almira Coulee Hartline High School,413 N. 4th Street,Coulee City,Washington,99115,47.614813,-119.292897,#7,WA4
701,13156,1518,RISE Academy,410 Ginkgo St S,SOAP LAKE,Washington,98851,47.388118,-119.498146,#7,WA4
702,13156,2694,Soap Lake Elementary,410 Ginkgo Street South,SOAP LAKE,Washington,98851,47.388118,-119.498146,#7,WA4
703,13156,3089,Soap Lake Middle & High School,410 Ginkgo St S,SOAP LAKE,Washington,98851,47.388118,-119.498146,#7,WA4
704,13160,3090,Red Rock Elementary,PO Box 486,Royal City,Washington,99357-0486,46.897589,-119.686316,#13,WA4
705,13160,3516,Royal High School,PO Box 486,Royal City,Washington,99357-0486,46.897589,-119.686316,#13,WA4
706,13160,3620,Royal Middle School,PO Box 486,Royal City,Washington,99357-0486,46.897589,-119.686316,#13,WA4
707,13161,2673,Frontier Middle School,517 WEST THIRD AVENUE,MOSES LAKE,Washington,98837-0000,47.127123,-119.283335,#13,WA4
708,13161,2832,Peninsula Elementary,2406 W. TEXAS STREET,MOSES LAKE,Washington,98837-0000,47.106187,-119.304632,#13,WA4
709,13161,2833,Knolls Vista Elementary,454 W RIDGE ROAD,MOSES LAKE,Washington,98837-0000,47.13469,-119.285496,#13,WA4
710,13161,2969,Lakeview Terrace Elementary,780 S. CLOVER DRIVE,MOSES LAKE,Washington,98837-0000,47.124016,-119.258629,#13,WA4
711,13161,2970,Midway Elementary,502 SOUTH C ST,MOSES LAKE,Washington,98837-0000,47.11964,-119.290455,#13,WA4
712,13161,3021,Larson Heights Elementary,700 LINDBERG LANE,MOSES LAKE,Washington,98837-0000,47.166543,-119.32318,#13,WA4
713,13161,3022,Chief Moses Middle School,1111 E NELSON ROAD,MOSES LAKE,Washington,98837-0000,47.115852,-119.25899,#13,WA4
714,13161,3091,Garden Heights Elementary,707 E NELSON ROAD,MOSES LAKE,Washington,98837-0000,47.115904,-119.265588,#13,WA4
715,13161,3153,Longview Elementary,9783 APPLE ROAD NE,MOSES LAKE,Washington,98837-0000,47.15181,-119.282515,#13,WA4
716,13161,3215,Moses Lake High School,803 E. SHARON AVE.,MOSES LAKE,Washington,98837-0000,47.111705,-119.265597,#13,WA4
717,13161,3779,North Elementary,1200 WEST CRAIG STREET,MOSES LAKE,Washington,98837-0000,47.173273,-119.327166,#13,WA4
718,13165,2695,Parkway School,1011 PARKWAY BLVD,EPHRATA,Washington,98823-0000,47.31304,-119.561412,#13,WA4
719,13165,2793,Columbia Ridge Elementary,60 H SE,EPHRATA,Washington,98823-0000,47.31764,-119.55365,#7,WA4
720,13165,2920,Ephrata High School,333 4TH AVE NW,EPHRATA,Washington,98823-0000,47.325325,-119.550593,#13,WA4
721,13165,3092,Grant Elementary,451 3RD NW,EPHRATA,Washington,98823-0000,47.318962,-119.55713,#13,WA4
722,13165,3373,Ephrata Middle School,"384 ""A"" SE",EPHRATA,Washington,98823-0000,47.315947,-119.552285,#13,WA4
723,13165,4229,Beezley Springs Elementary,501 C ST NW,EPHRATA,Washington,98823-0000,47.326305,-119.549662,#13,WA4
724,13167,2472,Wilson Creek Elementary,PO Box 46,Wilson Creek,Washington,98860-0000,47.473874,-119.18473,#7,WA4
725,13167,2473,Wilson Creek High,P.O. Box 46,Wilson Creek,Washington,98860-0046,47.473874,-119.18473,#7,WA4
726,13301,2801,Lake Roosevelt Jr/Sr High School,505 CREST DR,COULEE DAM,Washington,99116-0000,47.971858,-118.970915,#7,WA4
727,13301,2802,Lake Roosevelt Elementary ,503 Crest Dr,Coulee Dam,Washington,99116,47.971858,-118.970915,#7,WA4
728,14005,2305,Miller Junior High,100 E Lindstrom,Aberdeen,Washington,98520-8699,46.963915,-123.790742,#19,WA6
729,14005,2449,McDermoth Elementary,409 North K St,Aberdeen,Washington,98520-3928,46.977116,-123.823912,#19,WA6
730,21302,5510,Orin C Smith Elementary School,1240 Bishop Rd,Chehalis,Washington,98532,46.639099,-122.941943,#20,WA3
731,17414,5511,Clara Barton Elementary School,12011 172nd Ave NE,Redmond,Washington,98052,47.707932,-122.110757,#45,WA1
732,17414,5512,Ella Baker Elementary School,9595 Eastridge Drive NE,Redmond,Washington,98053,47.683859,-122.011063,#45,WA8
733,23403,5513,Mary E. Theler Early Learning Center,22871 NE SR 3,Belfair,Washington,98528,47.437918,-122.838747,#35,WA6
734,14005,5514,Grays Harbor Academy,216 North G St.,Aberdeen,Washington,98520,46.978406,-123.816542,#19,WA6
735,23404,5515,Hood Canal Middle School,111 N State Route 106,Shelton,Washington,98584,47.333552,-123.15948,#35,WA6
736,33212,5516,Kettle Falls Early Learning Center,PO Box 458,Kettle Falls,Washington,99141,48.61074,-118.05582,#7,WA5
737,17911,5517,Impact | Puget Sound Elementary,3438 S. 148th Street,Tukwila,Washington,98168,47.471122,-122.287999,#11,WA9
738,6122,5518,Sunset Ridge Intermediate School,3215 South Hillhurst Road,Ridgefield,Washington,98642,45.791839,-122.710386,#20,WA3
739,17403,5519,Sartori Elementary School,332 Park Ave N,Renton,Washington,98057,47.487586,-122.201807,#11,WA9
740,3017,5520,Amon Creek Elementary,18 Center Parkway,Richland,Washington,99352,46.230791,-119.231283,#8,WA4
741,3017,5521,Fuerza Elementary,6011 W 10th Pl,Kennewick,Washington,99338,46.198459,-119.205692,#8,WA4
742,17408,5522,Auburn Opportunity Project,401 West Main Street,Auburn,Washington,98001-5275,47.308185,-122.234762,#47,WA9
743,33036,5523,Chewelah Open Doors Reengagement Program,PO Box 47,Chewelah,Washington,99109,48.293181,-117.739245,#7,WA5
744,27320,5524,Tehaleh Heights Elementary,17520 Berkeley Parkway East,Bonney Lake,Washington,98391,47.127613,-122.196595,#31,WA8
745,29100,5525,Open Doors,301 N. Burlington Blvd,Burlington,Washington,98233,48.480873,-122.335273,#40,WA2
746,3400,5526,Richland School District Early Learning Center,1525 Hunt,Richland,Washington,99352,46.292773,-119.273023,#8,WA4
747,27001,5527,Steilacoom PRIDE Academy,54 Sentinel Drive,Steilacoom,Washington,98388,47.179288,-122.575752,#28,WA10
748,1147,5528,Early Childhood Center,1335 S. Ash St.,Othello,Washington,99344,46.81887,-119.155498,#15,WA4
749,5402,5529,Insight School of WA Open Doors Program,2601 S 35th St Ste 100,Tacoma,Washington,98409,47.228748,-122.47141,#27,WA6
750,10050,5530,Ferry County Open Doors,PO Box 370,Curlew,Washington,99118,48.894734,-118.669864,#7,WA5
751,27404,5531,Eatonville Online Academy,PO Box 698,Eatonville,Washington,98328,46.904844,-122.30141,#2,WA8
752,6117,5532,Camas School District Open Doors,1919 NE Ione St,Camas,Washington,98607,45.592737,-122.401166,#17,WA3
753,6117,5533,Discovery High School,5125 NW Nan Henriksen Way,Camas,Washington,98607,45.594721,-122.462288,#17,WA3
754,6117,5534,Odyssey Middle School,5780 Pacific Rim Blvd,Camas,Washington,98607,45.593328,-122.461767,#17,WA3
755,6114,5535,Cascadia Technical Academy ALE  ,12200 NE 28th Street,Vancouver,Washington,98682-7858,45.644151,-122.546865,#49,WA3
756,17406,5536,Tukwila Online Learning,4160 S 144th Street,Tukwila,Washington,98168,47.474507,-122.281568,#11,WA9
757,3116,5537,Prosser Opportunity Academy,1203 PROSSER AVE.,PROSSER,Washington,99350,46.203649,-119.767241,#16,WA4
758,26059,5538,Home Pride,305 Monumental Way,Cusick,Washington,99119,48.336481,-117.299311,#7,WA5
759,26059,5539,Kalispel Language Immersion School,305 Monumental Way,Cusick,Washington,99119,48.336481,-117.299311,#7,WA5
760,39208,5540,West Valley Open Doors,9800 Zier Rd,Yakima,Washington,98908,46.57369,-120.638891,#14,WA4
761,32356,5541,Riverbend Elementary School,17720 E Mission Avenue,Spokane Valley,Washington,99016,47.670918,-117.165506,#4,WA5
762,32356,5542,Stem Academy at SVT,115 S. University Road,Spokane Valley,Washington,99206,47.655776,-117.260254,#4,WA5
763,39207,5543,Simcoe Elementary School,1307 S CAMAS AVENUE,Wapato,Washington,98951,46.434423,-120.417228,#14,WA4
764,39207,5544,Camas Elementary,1010 South Camas Ave,Wapato,Washington,98951,46.439149,-120.418897,#14,WA4
765,8402,5545,Kalama High School,548 China Garden Road,Kalama,Washington,98625,46.008029,-122.838264,#20,WA3
766,18400,5546,Choice Academy,25800 Siyaya Ave NE,Kingston,Washington,98346,47.795059,-122.516634,#23,WA6
767,8458,5547,Kelso Goal Oriented Learning Design,1904 Allen St,Kelso,Washington,98626,46.143284,-122.892241,#19,WA3
768,23309,5548,Shelton Open Doors,SOUND LEARNING,SHELTON,Washington,98584,47.263255,-123.159683,#35,WA6
769,27901,5549,Chief Leschi Schools,5625 52nd St E,Puyallup,Washington,98371,47.210346,-122.354012,#25,WA10
770,39901,5550,Yakama Nation School,601 Linden St,Toppenish,Washington,98948,46.377506,-120.329712,#14,WA4
771,17401,5551,Glacier Middle School,2450 South 142nd Street,SeaTac,Washington,98168,47.477353,-122.299213,#33,WA9
772,32356,5552,Selkirk Middle School,1409 N Harvest Parkway,Liberty Lake,Washington,99016,47.670256,-117.13331,#4,WA5
773,13165,5553,Sage Hills ECEAP,35 K ST SE,Ephrata,Washington,98823,47.317429,-119.537535,#13,WA4
774,37506,5554,Nooksack Reengagement,PO Box 4307,NOOKSACK,Washington,98276,48.926702,-122.326183,#42,WA2
775,28137,5555,Orcas Island Montessori Public,557 School Road,Eastsound,Washington,98245-9457,48.698677,-122.903671,#40,WA2
776,11001,5556,Three Rivers Elementary,3901 Road 84,Pasco,Washington,99301,46.262689,-119.199153,#8,WA4
777,27003,5557,Dessie F Evans Elementary ,7911 144th St E,Puyallup,Washington,98373,47.127801,-122.324207,#25,WA10
778,6122,5558,Ridgefield Early Learning Center,510 Pioneer Street,Ridgefield,Washington,98642,45.817027,-122.741523,#20,WA3
779,28149,5559,Griffin Bay School Open Doors,PO Box 458,Friday Harbor,Washington,98250,48.538181,-123.068323,#40,WA2
780,39119,5560,Selah Academy Auxiliary,308 W Naches Ave,Selah,Washington,98942,46.653586,-120.533828,#14,WA4
781,39119,5561,Selah Academy BPL,308 W Naches Ave,Selah,Washington,98942,46.653586,-120.533828,#14,WA4
782,18402,5562,Pacific Northwest Connections Academy,111 Tumwater Blvd SE Ste B203,Tumwater,Washington,98501,46.983202,-122.904542,#22,WA10
783,17409,5563,Tahoma Open Doors,23499 SE Tahoma Way,Maple Valley,Washington,98038,47.357666,-122.028833,#5,WA8
784,27416,5564,White River Early Learning Center,27515 120th Street East,Buckley,Washington,98321,47.149559,-122.062731,#31,WA8
785,17001,5565,Magnolia Elementary,2418 24th Ave W,Seattle,Washington,98199,47.640472,-122.387521,#36,WA7
786,17001,5566,Lincoln High School,4400 Interlake Ave N,Seattle,Washington,98103-7519,47.65992,-122.339898,#43,WA7
787,36140,5567,ECEAP,1150 W Chestnut St,Walla Walla,Washington,99362,46.056568,-118.352508,#16,WA5
788,27010,5568,Willard Early Learning Center,3201 S D Street,Tacoma,Washington,98418,47.231673,-122.436057,#27,WA10
789,4246,5569,Valley Academy of Learning K-8,1911 N Wenatchee Avenue,Wenatchee,Washington,98801,47.452507,-120.332088,#12,WA8
790,31002,5570,Tambark Creek Elementary School,4419 180th St. SE,Bothell,Washington,98012-6749,47.836329,-122.173636,#44,WA1
791,6117,5573,The Heights Learning Center,4600 NE Garfield St,Camas,Washington,98607,45.612954,-122.402557,#17,WA3
792,38267,5574,Kamiak Elementary,1400 NW Terre View Drive,Pullman,Washington,99163,46.75193,-117.175278,#9,WA5
793,36250,5575,College Place Open Doors Program,1755 S College Avenue,College Place,Washington,99324,46.030884,-118.387588,#16,WA5
794,39203,5576,Highland ESD 105 Open Doors,33 S. 2nd Ave,Yakima,Washington,98902,46.599738,-120.510046,#15,WA4
795,17411,5577,Issaquah Preschool,565 NW Holly St.,Issaquah,Washington,98027,47.536866,-122.042403,#5,WA8
796,39801,5578,ESD 105 Open Doors,33 S 2nd Ave,Yakima,Washington,98908,46.599738,-120.510046,#15,WA4
797,37502,5579,Ferndale Virtual Academy,5830 Golden Eagle Drive,Ferndale,Washington,98248,48.853042,-122.592905,#42,WA2
798,39003,5580,NACHES VALLEY ESD 105 OPEN DOORS,33 S SECOND AVE,YAKIMA,Washington,98902,46.599738,-120.510046,#15,WA4
799,30303,5581,Open Doors for SHS,PO Box 850,Stevenson,Washington,98648,45.673707,-121.912581,#17,WA3
800,27417,5582,Fife Open Doors,5802 20th Street East,Tacoma,Washington,98424,47.238822,-122.347736,#27,WA6
801,17417,5583,Northshore Family Partnership,18101 Avondale Road NE,Woodinville,Washington,98077,47.759006,-122.080329,#1,WA8
802,14400,5584,Oakville Homelink,Po Box H,Oakville,Washington,98568,46.866084,-123.283859,#19,WA6
803,13144,5585,Ancient Lakes Elementary,417 C Street SE,Quincy,Washington,98848,47.23552,-119.845362,#13,WA4
804,24404,5586,Tonasket Choice High School,35 HS Hwy 20,Tonasket,Washington,98855,48.699937,-119.433262,#7,WA4
805,24404,5587,Tonasket Outreach School,35 HS Hwy 20,Tonasket,Washington,98855,48.699937,-119.433262,#7,WA4
806,29103,5588,Open Doors,1517 22nd Street,Anacortes,Washington,98221,48.504701,-122.620731,#40,WA2
807,29320,5589,Harriet Rowley Elementary,400 53rd St,Mount Vernon,Washington,98273,48.435248,-122.208184,#10,WA2
808,17941,5590,Renton Technical College DFTC,3000 NE 4TH ST,RENTON,Washington,98056,47.489341,-122.176373,#11,WA9
809,17941,5591,Renton Technical College DFTC Direct Enrollment,3000 4th St NE,Renton,Washington,98056,47.489341,-122.176373,#11,WA9
810,17412,5592,North City ,816 NE 190TH ST,SHORELINE,Washington,98155,47.767159,-122.320538,#32,WA7
811,17412,5593,Edwin Pratt Learning Center,1900 N 170th St,Shoreline,Washington,98133,47.752899,-122.336103,#32,WA7
812,14400,5594,Oakville Preschool,103 School St,Oakville,Washington,98568,46.839977,-123.239711,#19,WA6
813,39207,5595,Wapato ESD 105 Open Doors,33 S 2ND AVE,YAKIMA,Washington,98902,46.599738,-120.510046,#15,WA4
814,11001,5596,Soar to Success,2600 N 20th Ave,Pasco,Washington,99301,46.249454,-119.121735,#15,WA4
815,17414,5597,Timberline Middle School,9900 Redmond Ridge Drive NE,Redmond,Washington,98053,47.688108,-122.031712,#45,WA8
816,8404,5599,Columbia Elementary School,600 Bozarth Ave,Woodland,Washington,98674,45.902924,-122.753235,#20,WA3
817,8404,5600,North Fork Elementary School,2250 Lewis River Road,Woodland,Washington,98674,45.926235,-122.724182,#20,WA3
818,13161,5601,Moses Lake Big Picture,803 E. Sharon Ave,Moses Lake,Washington,98837,47.111705,-119.265597,#13,WA4
819,17915,5602,Ashe Preparatory Academy,19300 108th Ave SE,Kent,Washington,98031,47.428935,-122.195445,#11,WA9
820,22207,5603,Lincoln County Tech,801 7th Street,Davenport,Washington,99122,47.651579,-118.150554,#9,WA5
821,33115,5604,Colville Fish Hatchery,390 N Hofstetter ,Colville,Washington,99114,48.549786,-117.897166,#7,WA5
822,17417,5605,Ruby Bridges Elementary,20510 49th Drive SE,Woodinville,Washington,98072,47.811164,-122.167181,#44,WA1
823,17417,5606,Innovation Lab High School,2020 224th Street SE,Bothell,Washington,98021,47.794228,-122.203113,#1,WA1
824,14005,2763,Robert Gray Elementary,1516 North B St,Aberdeen,Washington,98520-2099,46.986236,-123.814171,#19,WA6
825,14005,2834,A J West Elementary,1801 Bay Ave.,Aberdeen,Washington,98520-5510,46.971925,-123.837736,#24,WA6
826,14005,2971,Stevens Elementary School,301 S. Farragut,Aberdeen,Washington,98520-8499,46.966733,-123.789943,#19,WA6
827,14005,3154,Hopkins Elementary,1313 Pacific,Aberdeen,Washington,98520-5510,46.97315,-123.831654,#24,WA6
828,14005,3216,Central Park Elementary,601 School Road,Aberdeen,Washington,98520-7999,46.967303,-123.698365,#24,WA6
829,14005,3476,J M Weatherwax High School,410 North G Street,Aberdeen,Washington,98520,46.979421,-123.817854,#19,WA6
830,14005,3857,Harbor High School,300 N. Williams,Aberdeen,Washington,98520-5510,46.975562,-123.83222,#24,WA6
831,14005,4267,Grays Harbor Juvenile Detention,103 Junction City Rd.,Aberdeen,Washington,98520-5622,46.978967,-123.779671,#19,WA6
832,14028,2268,Emerson Elementary,101 W Emerson,Hoquiam,Washington,98550-0000,46.981932,-123.904243,#24,WA6
833,14028,2391,Hoquiam Middle School,200 Spencer,Hoquiam,Washington,98550-0000,46.982239,-123.90526,#24,WA6
834,14028,2972,Central Elementary School,310 Simpson Avenue,Hoquiam,Washington,98550-0000,46.980354,-123.889411,#24,WA6
835,14028,3621,Lincoln Elementary,700 Wood,Hoquiam,Washington,98550-0000,46.991412,-123.887405,#24,WA6
836,14028,3622,Hoquiam High School,501 W. Emerson,Hoquiam,Washington,98550-0000,46.982834,-123.910293,#24,WA6
837,14064,2728,North Beach Senior High School,P.O. Box 969,Ocean Shores,Washington,98569-0000,47.071971,-124.152461,#24,WA6
838,14064,3155,Pacific Beach Elementary School,P.O. Box H,Pacific Beach,Washington,98571-0000,47.219468,-124.191502,#24,WA6
839,14064,3787,Ocean Shores Elementary,300 Mt. Olympus Way,Ocean Shores,Washington,98569-0000,46.977859,-124.154793,#24,WA6
840,14064,3788,North Beach Junior High School,PO Box 969,Ocean Shores,Washington,98569-0000,47.071971,-124.152461,#24,WA6
841,14065,2835,Mccleary Elem,611 S. Main St.,McCleary,Washington,98557-9524,47.049107,-123.266177,#19,WA6
842,14066,2180,Montesano Jr-Sr High,303 North Church,Montesano,Washington,98563-2504,46.983603,-123.597187,#24,WA6
843,14066,3374,Simpson Avenue Elementary,519 West Simpson Avenue,Montesano,Washington,98563-1151,46.985221,-123.606357,#24,WA6
844,14066,3661,Beacon Avenue Elementary School,1717 East Beacon Avenue,Montesano,Washington,98563-9755,46.984535,-123.581552,#24,WA6
845,14068,1629,East Grays Harbor High School,1235 Monte-Elma Rd,Elma,Washington,98541-0000,47.004335,-123.435895,#24,WA6
846,14068,2137,Elma High School,1235 Elma-Monte Rd,Elma,Washington,98541-0000,47.00343,-123.40877,#35,WA6
847,14068,3217,Elma Elementary School,1235 Monte-Elma Rd,Elma,Washington,98541-0000,47.004335,-123.435895,#24,WA6
848,14068,4245,Elma Middle School,1235 Monte-Elma Rd.,Elma,Washington,98541-0000,47.004335,-123.435895,#24,WA6
849,14077,3580,Taholah High School,PO Box 249,Taholah,Washington,98587-0249,47.3374,-124.27877,#24,WA6
850,14097,2921,Lake Quinault School,P O Box 38,Amanda Park,Washington,98526-0000,47.485913,-123.920555,#24,WA6
851,14099,3326,Cosmopolis Elementary School,P.O. Box 479,Cosmopolis,Washington,98537-0479,46.878164,-123.64539,#19,WA6
852,14104,2010,Satsop Elementary,Box 96,Satsop,Washington,98583-0000,47.002178,-123.483596,#24,WA6
853,14117,3375,Wishkah Valley Elementary/High School,4640 Wishkah Rd.,Aberdeen,Washington,98520-9626,47.117347,-123.77013,#24,WA6
854,14172,3024,Ocosta Junior - Senior High,2580 S Montesano St,Westport,Washington,98595-9746,46.861068,-124.100934,#19,WA6
855,14172,3025,Ocosta Elementary School,2580 S Montesano St,Westport,Washington,98595-9746,46.861068,-124.100934,#19,WA6
856,14400,2283,Oakville High School,PO BOX H,OAKVILLE,Washington,98568-0090,46.866084,-123.283859,#19,WA6
857,14400,2922,Oakville Elementary,PO BOX H,OAKVILLE,Washington,98568-0090,46.866084,-123.283859,#19,WA6
858,15201,1758,Homeconnection,350 S. Oak Harbor St.,Oak Harbor,Washington,98277-0000,48.295862,-122.657039,#10,WA2
859,15201,2696,Oak Harbor Elementary,151 SE Midway Blvd.,Oak Harbor,Washington,98277-0000,48.297554,-122.643967,#10,WA2
860,15201,2974,Oak Harbor High School,950 NW 2nd Ave.,Oak Harbor,Washington,98277-0000,48.300603,-122.668501,#10,WA2
